ID,LABEL,LAT,LON,VIEWS,COUNTRY_ISO,COUNTRY_FIPS,COUNTRY,COUNTRY_ID
Q486459,Evansville,37.974722222222,-87.555833333333,9289,US,US,United States of America,30
Q25444,Funchal,32.65,-16.916666666667,9270,PT,PO,Portugal,45
Q45301,Trabzon,41.005,39.7225,9268,TR,TU,Turkey,43
Q9365,Dushanbe,38.573055555556,68.786388888889,9253,TJ,TI,Tajikistan,863
Q9365,Dushanbe,38.573055555556,68.786388888889,9253,,,,746558
Q170315,Abbottabad,34.15,73.216666666667,9252,PK,PK,Pakistan,843
Q41827,Chittorgarh,24.889444444444,74.623888888889,9252,IN,IN,India,668
Q128306,Denton,33.216666666667,-97.133333333333,9251,US,US,United States of America,30
Q207098,Ghaziabad,28.666666666667,77.416666666667,9241,IN,IN,India,668
Q2843,Lübeck,53.869722222222,10.686388888889,9210,DE,GM,Germany,183
Q628,Bergamo,45.695,9.67,9207,IT,IT,Italy,38
Q80985,Fez,34.04333333333334,-5.003333333333333,9206,MA,MO,Morocco,1028
Q25319,Aarhus,56.156388888889,10.209722222222,9196,DK,DA,Denmark,35
Q6640,Pokhara,28.209722222222,83.985277777778,9192,NP,NP,Nepal,837
Q488134,Ontario,34.052777777778,-117.62777777778,9177,US,US,United States of America,30
Q495365,Rancho Cucamonga,34.123333333333,-117.57944444444,9175,US,US,United States of America,30
Q51698,McAllen,26.216388888889,-98.236388888889,9162,US,US,United States of America,30
Q3014,Wolfsburg,52.423055555556,10.787222222222,9159,DE,GM,Germany,183
Q51690,Irving,32.811666666667,-96.950833333333,9144,US,US,United States of America,30
Q128282,Beaumont,30.08,-94.126666666667,9135,US,US,United States of America,30
Q2978,Regensburg,49.016666666666666,12.083333333333334,9132,DE,GM,Germany,183
Q2978,Regensburg,49.016666666666666,12.083333333333334,9132,DE,GM,Germany,183
Q289693,Sharjah,25.3575,55.391944444444,9114,AE,AE,United Arab Emirates,878
Q180522,Aqaba,29.516666666667,35,9092,JO,JO,Jordan,810
Q42622,Suzhou,31.30401,120.61642,9080,CN,CH,People's Republic of China,148
Q1636,Antipolo,14.584244444444444,121.17628888888889,9030,PH,RP,Philippines,928
Q2742,Münster,51.9625,7.6255555555556,9022,DE,GM,Germany,183
Q2773,Brunswick,52.269166666667,10.521111111111,9011,DE,GM,Germany,183
Q52535,Rosario,-32.9575,-60.639444444444,9005,AR,AR,Argentina,414
Q4361,Curitiba,-25.429722222222,-49.271944444444,9000,BR,BR,Brazil,155
Q125434,Port Elizabeth,-33.958055555556,25.6,8996,ZA,SF,South Africa,258
Q217432,Port Harcourt,4.75,7,8975,NG,NI,Nigeria,1033
Q81788,Giza,29.987,31.2118,8958,EG,EG,Egypt,79
Q122803,Erzurum,39.909722222222,41.275555555556,8950,TR,TU,Turkey,43
Q488924,Oceanside,33.211666666667,-117.32583333333,8946,US,US,United States of America,30
Q243007,Naperville,41.748055555556,-88.165555555556,8939,US,US,United States of America,30
Q9270,Thimphu,27.483333333333,89.633333333333,8927,BT,BT,Bhutan,917
Q462789,Cape Coral,26.633333,-81.983333,8927,US,US,United States of America,30
Q208445,Vallejo,38.104088,-122.256638,8891,US,US,United States of America,30
Q213026,Bareilly,28.364,79.415,8872,IN,IN,India,668
Q41496,Thanjavur,10.8,79.15,8835,IN,IN,India,668
Q2471,Sana'a,15.35,44.2,8792,YE,YM,Yemen,805
Q1721,Wiesbaden,50.0825,8.24,8785,DE,GM,Germany,183
Q49272,Chandler,33.303333333333,-111.84138888889,8772,US,US,United States of America,30
Q49162,Lowell,42.639444444444,-71.314722222222,8772,US,US,United States of America,30
Q187136,Luoyang,34.65867,112.42447,8765,CN,CH,People's Republic of China,148
Q48195,Basra,30.488888888889,47.81,8727,IQ,IZ,Iraq,796
Q8356,Valladolid,41.651980555556,-4.7285611111111,8723,ES,SP,Spain,29
Q501766,Murfreesboro,35.846143,-86.392078,8695,US,US,United States of America,30
Q12193,Brest,48.39,-4.4869444444444,8683,FR,FR,France,142
Q3012,Ulm,48.39841,9.99155,8676,DE,GM,Germany,183
Q460222,Ulhasnagar,19.216666666667,73.15,8673,IN,IN,India,668
Q83404,Timișoara,45.759722222222,21.23,8656,RO,RO,Romania,218
Q643883,Sialkot,32.5,74.533333333333,8653,PK,PK,Pakistan,843
Q8757,A Coruña,43.366666666667,-8.3833333333333,8634,ES,SP,Spain,29
Q190021,Townsville,-19.262222222222,146.81583333333,8629,AU,AS,Australia,408
Q3642,Asmara,15.333333333333,38.916666666667,8621,ER,ER,Eritrea,986
Q486479,Rochester,44.0234,-92.46295,8607,US,US,United States of America,30
Q33986,Valparaíso,-33.0458,-71.6197,8601,CL,CI,Chile,298
Q41876,Reims,49.265277777778,4.0286111111111,8592,FR,FR,France,142
Q3992,Liège,50.62499305555556,5.590731388888889,8569,BE,BE,Belgium,31
Q207754,Trichy,10.826944444444,78.692777777778,8568,IN,IN,India,668
Q3733,Conakry,9.5091666666667,-13.712222222222,8564,GN,GV,Guinea,1006
Q617,Padua,45.406388888889,11.877777777778,8512,IT,IT,Italy,38
Q3780,Freetown,8.4833333333333,-13.233055555556,8511,SL,SL,Sierra Leone,1044
Q131127,Banja Luka,44.766666666667,17.183333333333,8510,BA,BK,Bosnia and Herzegovina,225
Q51682,Glendale,33.583333333333,-112.2,8509,US,US,United States of America,30
Q1476,Le Mans,48.004166666667,0.19694444444444,8503,FR,FR,France,142
Q208143,Wigan,53.544722222222,-2.6316666666667,8502,GB,UK,United Kingdom,145
Q746718,Birkenhead,53.383333333333,-3.0166666666667,8494,GB,UK,United Kingdom,145
Q208459,Sunnyvale,37.368888888889,-122.03694444444,8490,US,US,United States of America,30
Q182984,Kano,12,8.5166666666667,8489,NG,NI,Nigeria,1033
Q7568,Yogyakarta,-7.8013888888889,110.36444444444,8476,ID,ID,Indonesia,252
Q3808,Yaoundé,3.8577777777778,11.518055555556,8460,CM,CM,Cameroon,1009
Q6730,Perpignan,42.6975,2.8947222222222,8444,FR,FR,France,142
Q488940,Palmdale,34.581111111111,-118.10055555556,8417,US,US,United States of America,30
Q1903,Catania,37.502669444444,15.087269444444,8342,IT,IT,Italy,38
Q3110,San Salvador,13.698888888888888,-89.1913888888889,8333,SV,ES,El Salvador,792
Q3919,Gaborone,-24.656944444444,25.908611111111,8333,BW,BC,Botswana,963
Q118958,Leuven,50.8775,4.704444,8287,BE,BE,Belgium,31
Q188313,Blackburn,53.7449,-2.4769,8275,GB,UK,United Kingdom,145
Q1647,Rijeka,45.329722222222,14.432222222222,8261,HR,HR,Croatia,224
Q495373,Visalia,36.317222222222,-119.33194444444,8179,US,US,United States of America,30
Q41329,Linz,48.3,14.283333333333,8174,AT,AU,Austria,40
Q894,Samara,53.183333333333,50.116666666667,8169,RU,RS,Russia,159
Q894,Samara,53.183333333333,50.116666666667,8169,,,,34266
Q894,Samara,53.183333333333,50.116666666667,8169,,,,15180
Q2933,Asunción,-25.3,-57.633333333333,8159,PY,PA,Paraguay,733
Q11959,Alicante,38.345277777778,-0.48305555555556,8140,ES,SP,Spain,29
Q11910,Gandhinagar,23.22,72.68,8124,IN,IN,India,668
Q3674,Niamey,13.508611111111,2.1111111111111,8091,NE,NG,Niger,1032
Q33377,Jalandhar,31.325555555556,75.579166666667,8085,IN,IN,India,668
Q1733,Magdeburg,52.127777777778,11.629166666667,8030,DE,GM,Germany,183
Q1733,Magdeburg,52.127777777778,11.629166666667,8030,DE,GM,Germany,183
Q51599,Punta Arenas,-53.1627,-70.9081,8000,CL,CI,Chile,298
Q271730,Abbotsford,49.054611111111,-122.328,7979,CA,CA,Canada,16
Q160544,Heraklion,35.333333333333,25.133333333333,7958,,,,4948
Q160544,Heraklion,35.333333333333,25.133333333333,7958,,,,12560
Q160544,Heraklion,35.333333333333,25.133333333333,7958,GR,GR,Greece,41
Q160544,Heraklion,35.333333333333,25.133333333333,7958,,,,12560
Q160544,Heraklion,35.333333333333,25.133333333333,7958,,,,603771
Q160544,Heraklion,35.333333333333,25.133333333333,7958,,,,12544
Q667749,Port St. Lucie,27.275833333333,-80.355,7952,US,US,United States of America,30
Q181557,Kaohsiung,22.616667,120.3,7937,TW,TW,Taiwan,865
Q6506,Varna,43.207777777778,27.916944444444,7916,BG,BU,Bulgaria,219
Q47465,Aix-en-Provence,43.527777777778,5.4455555555556,7911,FR,FR,France,142
Q1640079,Hyderabad,25.379166666667,68.368333333333,7909,PK,PK,Pakistan,843
Q328941,Clarksville,36.5297222,-87.3594444,7900,US,US,United States of America,30
Q93338,Gaziantep,37.066666666667,37.383333333333,7898,TR,TU,Turkey,43
Q283368,Raqqa,35.95,39.016666666667,7873,SY,SY,Syria,858
Q141810,Laval,45.5833,-73.75,7872,CA,CA,Canada,16
Q3866,Dodoma,-6.25,35.75,7871,TZ,TZ,Tanzania,924
Q182852,Kunming,25.043333333333,102.70611111111,7869,CN,CH,People's Republic of China,148
Q45313,Herat,34.37385,62.179180555556,7860,AF,AF,Afghanistan,889
Q187861,Wollongong,-34.433055555556,150.88305555556,7857,AU,AS,Australia,408
Q494711,Lancaster,34.686944444444,-118.15416666667,7846,US,US,United States of America,30
Q242995,Jhansi,25.44862,78.56962,7836,IN,IN,India,668
Q43509,Guayaquil,-2.1833333333333,-79.883333333333,7804,EC,EC,Ecuador,736
Q486868,Pomona,34.060833333333,-117.75583333333,7799,US,US,United States of America,30
Q8861,Malabon,14.6625,120.95666666667,7791,PH,RP,Philippines,928
Q491114,Hayward,37.668888888889,-122.08083333333,7762,US,US,United States of America,30
Q3927,Astrakhan,46.333333333333,48.016666666667,7753,RU,RS,Russia,159
Q459,Plovdiv,42.143333333333,24.748888888889,7744,BG,BU,Bulgaria,219
Q1003502,Secunderabad,17.45,78.5,7726,IN,IN,India,668
Q243322,Gujranwala,32.15,74.183333333333,7707,PK,PK,Pakistan,843
Q82174,Brașov,45.65,25.6,7699,RO,RO,Romania,218
Q13666,Messina,38.183333333333,15.55,7693,IT,IT,Italy,38
Q75978,Calamba,14.216666666667,121.16666666667,7672,PH,RP,Philippines,928
Q4115712,Kaunas,54.9,23.933333333333,7669,LT,LH,Lithuania,37
Q79535,Fort Smith,35.35,-94.366666666667,7648,US,US,United States of America,30
Q2683,Parma,44.801472222222,10.328,7645,IT,IT,Italy,38
Q3881,Lusaka,-15.416666666667,28.283333333333,7640,ZM,ZA,Zambia,953
Q647,Rennes,48.114166666667,-1.6808333333333,7609,FR,FR,France,142
Q976,Tomsk,56.488611111111,84.952222222222,7555,RU,RS,Russia,159
Q80561,Antakya,36.2,36.15,7552,TR,TU,Turkey,43
Q1947,Juba,4.85,31.6,7531,SS,OD,South Sudan,958
Q5206,Stavropol,45.05,41.983333333333,2689,,,,34266
Q5206,Stavropol,45.05,41.983333333333,2689,RU,RS,Russia,159
Q5206,Stavropol,45.05,41.983333333333,2689,,,,15180
Q189166,Amadora,38.75,-9.2333333333333,2676,PT,PO,Portugal,45
Q102217,Vitebsk,55.183333333333,30.166666666667,2673,BY,BO,Belarus,184
Q102217,Vitebsk,55.183333333333,30.166666666667,2673,BY,BO,Belarus,184
Q192961,Ramadi,33.416666666667,43.3,2671,IQ,IZ,Iraq,796
Q1815367,Serampore,22.75,88.34,2668,IN,IN,India,668
Q2318927,Uluberia,22.47,88.11,2664,IN,IN,India,668
Q146351,Liberec,50.7699972,15.0584492,2660,CZ,EZ,Czech Republic,213
Q57906,Yangzhou,32.39117,119.43625,2659,CN,CH,People's Republic of China,148
Q695585,Nagapattinam,10.766666666667,79.833333333333,2659,IN,IN,India,668
Q1009253,Ipswich,-27.616666666667,152.76666666667,2656,AU,AS,Australia,408
Q42120,Anyang,37.3925,126.92694444444,2652,KR,KS,South Korea,884
Q890671,Manzhouli,49.588055555556,117.4525,2650,CN,CH,People's Republic of China,148
Q200578,Yokosuka,35.25,139.66666666667,2648,JP,JA,Japan,17
Q387322,Centennial,39.596388888889,-104.84388888889,2647,US,US,United States of America,30
Q170532,Amasya,40.65,35.833333333333,2644,TR,TU,Turkey,43
Q726143,Tema,5.6666666666667,-0.016666666666667,2642,GH,GH,Ghana,117
Q39738,Laoag,18.2,120.6,2637,PH,RP,Philippines,928
Q208718,Port Sudan,19.615833333333,37.216388888889,2634,SD,SU,Sudan,1049
Q1880,Concepción,-36.8271,-73.0503,2632,CL,CI,Chile,298
Q202162,Aba,5.1166666666667,7.3666666666667,2624,NG,NI,Nigeria,1033
Q30996,El Alto,-16.5,-68.2,2623,BO,BL,Bolivia,750
Q157137,Kryvyi Rih,47.908611111111114,33.343333333333334,2623,UA,UP,Ukraine,212
Q139208,Lévis,46.8,-71.1833,2617,CA,CA,Canada,16
Q3046,Pforzheim,48.895,8.705,2616,DE,GM,Germany,183
Q42142,Jeju,33.509722222222,126.52194444444,2610,KR,KS,South Korea,884
Q868631,Sukkur,27.699522222222,68.867286111111,2607,PK,PK,Pakistan,843
Q523778,Sahiwal,30.670555555555556,73.10638888888889,2605,PK,PK,Pakistan,843
Q569907,Baotou,40.65621,109.83454,2599,CN,CH,People's Republic of China,148
Q184345,Viña del Mar,-33.02444444444444,-71.55166666666666,2597,CL,CI,Chile,298
Q259253,Buraidah,26.333333333333,43.966666666667,2594,SA,SA,Saudi Arabia,851
Q184046,Zenica,44.20388888888889,17.907777777777778,2591,BA,BK,Bosnia and Herzegovina,225
Q273779,Saint-Louis,16.033333333333,-16.5,2587,SN,SG,Senegal,1041
Q54108,Bahía Blanca,-38.716666666667,-62.266666666667,2584,AR,AR,Argentina,414
Q134121,Namur,50.466666666667,4.8666666666667,2578,BE,BE,Belgium,31
Q652376,Ratlam,23.316666666667,75.066666666667,2577,IN,IN,India,668
Q27174,Najran,17.4917,44.1322,2574,SA,SA,Saudi Arabia,851
Q192213,Holon,32.016666666667,34.766666666667,2574,IL,IS,Israel,801
Q3977,Elista,46.316666666667,44.266666666667,2568,RU,RS,Russia,159
Q633530,Berhampore,24.1,88.25,2568,IN,IN,India,668
Q188806,Kitakyūshū,33.883333333333,130.88333333333,2563,JP,JA,Japan,17
Q328518,Armenia,4.5388888888889,-75.6725,2562,CO,CO,Colombia,739
Q316500,Talisay,10.25,123.83333333333,2557,PH,RP,Philippines,928
Q3323,Belgorod,50.6,36.6,2552,RU,RS,Russia,159
Q10393,Bogor,-6.6,106.8,2550,ID,ID,Indonesia,252
Q9777,Venlo,51.366666666667,6.1666666666667,2550,NL,NL,Netherlands,55
Q180078,Kermanshah,34.316666666667,47.068611111111,2549,IR,IR,Iran,794
Q59173,Huizhou,23.11147,114.41523,2544,CN,CH,People's Republic of China,148
Q221051,Xalapa,19.53124,-96.91589,2540,MX,MX,Mexico,96
Q2143,Syktyvkar,61.666666666667,50.816666666667,2540,RU,RS,Russia,159
Q46400,Suceava,47.651388888889,26.255555555556,2538,RO,RO,Romania,218
Q211563,Beira,-19.833333333333,34.85,2536,MZ,MZ,Mozambique,1029
Q55596,Gapan,15.3075,120.945278,2532,PH,RP,Philippines,928
Q29962,Asyut,27.186944444444,31.171388888889,2527,EG,EG,Egypt,79
Q598985,Begusarai,25.42,86.13,2527,IN,IN,India,668
Q972756,Sheikhupura,31.708333333333,74,2527,PK,PK,Pakistan,843
Q633036,Nakhon Ratchasima,14.973611,102.083056,2521,TH,TH,Thailand,869
Q247248,Sambhal,28.58,78.55,2519,IN,IN,India,668
Q221436,Maiduguri,11.833333333333,13.15,2516,NG,NI,Nigeria,1033
Q12246,Huelva,37.25,-6.95,2508,ES,SP,Spain,29
Q152467,Bnei Brak,32.08074,34.8338,2505,IL,IS,Israel,801
Q200078,Okayama,34.65,133.91666666667,2501,JP,JA,Japan,17
Q189383,Damietta,31.416666666667,31.816666666667,2500,EG,EG,Egypt,79
Q188693,Blantyre,-15.786111111111,35.005833333333,2493,MW,MI,Malawi,1020
Q15092,Castelló de la Plana,39.97,-0.05,2492,ES,SP,Spain,29
Q2462135,Osmanabad,18.166666666667,76.05,2491,IN,IN,India,668
Q182009,Tekirdağ,40.983333333333,27.516666666667,2491,TR,TU,Turkey,43
Q2203,Arica,-18.4784,-70.3211,2487,CL,CI,Chile,298
Q432169,Dipolog,8.5666666666667,123.33333333333,2483,PH,RP,Philippines,928
Q143782,North Las Vegas,36.228611111111,-115.14666666667,2481,US,US,United States of America,30
Q193965,Kamianets-Podilskyi,48.680555555556,26.580555555556,2480,UA,UP,Ukraine,212
Q583818,Ichalkaranji,16.7,74.47,2474,IN,IN,India,668
Q189043,Petrópolis,-22.505,-43.178888888889,2465,BR,BR,Brazil,155
Q216075,Cần Thơ,10.033333333333,105.78333333333,2464,VN,VM,Vietnam,881
Q169134,Nara,34.683333333333,135.78333333333,2458,JP,JA,Japan,17
Q5343,Saransk,54.183333333333,45.183333333333,2453,RU,RS,Russia,159
Q178373,Rasht,37.283333333333,49.6,2450,IR,IR,Iran,794
Q7786,Pekanbaru,0.53333333333333,101.45,2450,ID,ID,Indonesia,252
Q36307,Salta,-24.788333333333,-65.410555555556,2438,AR,AR,Argentina,414
Q27660,Jizan,16.889166666667,42.561111111111,2436,SA,SA,Saudi Arabia,851
Q43168,Urdaneta,15.976111111111,120.57111111111,2431,PH,RP,Philippines,928
Q13377,Prato,43.880813888889,11.096561111111,2427,IT,IT,Italy,38
Q1922275,Mandsaur,24.03,75.08,2423,IN,IN,India,668
Q42154,Pyeongtaek,36.994722222222,127.08888888889,2418,KR,KS,South Korea,884
Q154801,Komsomolsk-on-Amur,50.55,137,2406,RU,RS,Russia,159
Q12258,Sabadell,41.548333333333,2.1075,2405,ES,SP,Spain,29
Q206484,Abeokuta,7.15,3.35,2403,NG,NI,Nigeria,1033
Q102317,Kielce,50.8725,20.631944444444,2401,PL,PL,Poland,36
Q28441,São Luís,-2.53,-44.302777777778,2400,BR,BR,Brazil,155
Q194332,Mogi das Cruzes,-23.522777777778,-46.193055555556,2396,BR,BR,Brazil,155
Q1922283,Mehsana,23.6,72.4,2394,IN,IN,India,668
Q59975,Bejaïa,36.75,5.0666666666667,2391,DZ,AG,Algeria,262
Q178663,Meknes,33.883333333333,-5.55,2390,MA,MO,Morocco,1028
Q36214,Puerto Montt,-41.4718,-72.9396,2389,CL,CI,Chile,298
Q1006338,Krishnanagar,23.4,88.5,2385,IN,IN,India,668
Q847610,Seremban,2.7297222222222,101.93805555556,2382,MY,MY,Malaysia,833
Q219039,"Nadiad, Gujarat",22.7,72.87,2370,IN,IN,India,668
Q11445,Malang,-7.98,112.62,2363,ID,ID,Indonesia,252
Q216847,Cúcuta,7.9075,-72.504722222222,2362,CO,CO,Colombia,739
Q577336,Calbayog,12.066666666667,124.6,2361,PH,RP,Philippines,928
Q157024,Tetovo,42.010277777778,20.971388888889,2352,MK,MK,North Macedonia,221
Q856003,Klang,3.0333333333333,101.45,2351,MY,MY,Malaysia,833
Q583137,Kidapawan,7.00833,125.08944,2350,PH,RP,Philippines,928
Q71284,Xiangyang,32.06536,112.15307,2346,CN,CH,People's Republic of China,148
Q651131,Kota Bharu,6.1333333333333,102.25,2341,MY,MY,Malaysia,833
Q696605,Larkana,27.56,68.226388888889,2340,PK,PK,Pakistan,843
Q152449,Beit Shemesh,31.751388888889,34.988611111111,2337,IL,IS,Israel,801
Q154835,Mahilioŭ,53.90894,30.34296,2334,BY,BO,Belarus,184
Q6066,Kemerovo,55.333333333333,86.066666666667,2326,RU,RS,Russia,159
Q1866604,Livingstone,-17.85,25.866666666667,2322,ZM,ZA,Zambia,953
Q1026616,Jhang,31.268055555556,72.318055555556,2319,PK,PK,Pakistan,843
Q185332,Satu Mare,47.79,22.89,2319,RO,RO,Romania,218
Q157065,Kerch,45.338611111111,36.468055555556,2313,RU,RS,Russia,159
Q157065,Kerch,45.338611111111,36.468055555556,2313,UA,UP,Ukraine,212
Q11283,Butwal,27.7,83.45,2307,NP,NP,Nepal,837
Q18459,Yongin,37.236111111111,127.20111111111,2305,KR,KS,South Korea,884
Q42153,Paju,37.832777777778,126.81694444444,2303,KR,KS,South Korea,884
Q796739,Bidhannagar,22.58,88.42,2300,IN,IN,India,668
Q109374,Wonsan,39.1475,127.44611111111,2299,KP,KN,North Korea,423
Q207350,Rehovot,31.891388888889,34.807777777778,2298,IL,IS,Israel,801
Q42157,Pohang,36.032222222222,129.365,2297,KR,KS,South Korea,884
Q10392,Bekasi,-6.2333333333333,107,2295,ID,ID,Indonesia,252
Q19151,Ternate,0.78333333333333,127.36666666667,2292,ID,ID,Indonesia,252
Q373023,Weihai,37.5,122.1,2289,CN,CH,People's Republic of China,148
Q21194,Vũng Tàu,10.404166666667,107.14166666667,2285,VN,VM,Vietnam,881
Q52465,West Valley City,40.689166666667,-111.99388888889,2282,US,US,United States of America,30
Q216835,Cap-Haïtien,19.75,-72.2,2280,HT,HA,Haiti,790
Q5540,Penza,53.2,45,2277,RU,RS,Russia,159
Q1018144,Paarl,-33.724167,18.955833,2276,ZA,SF,South Africa,258
Q205914,Lijiang,26.880833333333,100.22083333333,2276,CN,CH,People's Republic of China,148
Q927243,Sterling Heights,42.580277777778,-83.030277777778,2272,US,US,United States of America,30
Q3167,Siegen,50.875555555556,8.0166666666667,2270,DE,GM,Germany,183
Q3167,Siegen,50.875555555556,8.0166666666667,2270,DE,GM,Germany,183
Q575780,Upington,-28.457222222222,21.2425,2264,ZA,SF,South Africa,258
Q214173,Trujillo,-8.1119444444444,-79.028888888889,2264,PE,PE,Peru,419
Q488946,Downey,33.938055555556,-118.13083333333,7505,US,US,United States of America,30
Q92161,Changchun,43.9,125.2,7497,CN,CH,People's Republic of China,148
Q9863,Salem,11.65,78.166666666667,7491,IN,IN,India,668
Q201812,Huddersfield,53.645,-1.7797222222222,7486,GB,UK,United Kingdom,145
Q25475,Batumi,41.645833333333,41.641666666667,7486,GE,GG,Georgia,230
Q3832,Bangui,4.37325,18.562833333333,7472,CF,CT,Central African Republic,929
Q185518,Mandalay,21.976944444444,96.086944444444,7440,MM,BM,Myanmar,836
Q6526,Bolzano,46.5,11.35,7430,IT,IT,Italy,38
Q1646181,Worcester,52.191111111111,-2.2222222222222,7418,GB,UK,United Kingdom,145
Q10389,Bandung,-6.95,107.56666666667,7406,ID,ID,Indonesia,252
Q223517,Ahmednagar,19.083333333333,74.733333333333,7403,IN,IN,India,668
Q424984,Oakville,43.45,-79.683333333333,7402,CA,CA,Canada,16
Q504114,Guelph,43.55,-80.25,7399,CA,CA,Canada,16
Q13369,Rimini,44.059444444444,12.568333333333,7376,IT,IT,Italy,38
Q63139,Dasmariñas,14.329444444444,120.93666666667,7371,PH,RP,Philippines,928
Q3688,Nouakchott,18.078333333333,-15.974444444444,7371,MR,MR,Mauritania,1025
Q3636023,Vijayapura,16.82442,75.71537,7345,IN,IN,India,668
Q588,Katowice,50.25,19,7339,PL,PL,Poland,36
Q40347,Norman,35.221666666667,-97.418333333333,7336,US,US,United States of America,30
Q51697,McKinney,33.2,-96.633333333333,7318,US,US,United States of America,30
Q2999,Würzburg,49.794444444444,9.9294444444444,7316,DE,GM,Germany,183
Q2999,Würzburg,49.794444444444,9.9294444444444,7316,DE,GM,Germany,183
Q392599,Everett,47.963333333333,-122.20055555556,7315,US,US,United States of America,30
Q339527,Launceston,-41.444444444444,147.13777777778,7304,AU,AS,Australia,408
Q141844,Gatineau,45.483333,-75.65,7295,CA,CA,Canada,16
Q639408,Waterloo,43.466666666667,-80.516666666667,7294,CA,CA,Canada,16
Q79808,Constanța,44.173333333333,28.638333333333,7263,RO,RO,Romania,218
Q749,Groningen,53.21852777777778,6.567,7240,NL,NL,Netherlands,55
Q40898,Nancy,48.692777777778,6.1836111111111,7235,FR,FR,France,142
Q38545,Adana,37,35.325,7235,TR,TU,Turkey,43
Q810196,Basingstoke,51.2667,-1.0876,7223,GB,UK,United Kingdom,145
Q2112,Bielefeld,52.016666666667,8.5333333333333,7220,DE,GM,Germany,183
Q168652,Hargeisa,9.565556,44.060556,7208,,,,34754
Q121157,Mashhad,36.306944444444,59.604166666667,7206,IR,IR,Iran,794
Q191170,Fallujah,33.35,43.783333333333,7195,IQ,IZ,Iraq,796
Q217039,Rotherham,53.43,-1.3572222222222,7185,GB,UK,United Kingdom,145
Q25563103,Warangal,17.975555555556,79.601111111111,7175,IN,IN,India,668
Q40345,Joliet,41.5225,-88.140555555556,7164,US,US,United States of America,30
Q3437,Perugia,43.1121,12.3888,7150,IT,IT,Italy,38
Q59218,Dongguan,23.04749,113.74928,7148,CN,CH,People's Republic of China,148
Q490441,Concord,37.978055555556,-122.03111111111,7148,US,US,United States of America,30
Q10400,Almería,36.833333333333,-2.45,7141,ES,SP,Spain,29
Q491099,Carlsbad,33.158267,-117.350996,7128,US,US,United States of America,30
Q162615,Cartagena,37.6,-0.98194444444444,7123,ES,SP,Spain,29
Q14634,Makassar,-5.1330555555556,119.41361111111,7120,ID,ID,Indonesia,252
Q690,Delft,52.011944444444,4.3594444444444,7112,NL,NL,Netherlands,55
Q1725,Lipa,13.941111111111,121.16222222222,7104,PH,RP,Philippines,928
Q14318,Vitoria-Gasteiz,42.846666666667,-2.6730555555556,7097,ES,SP,Spain,29
Q174091,Changsha,28.19874,112.97087,7093,CN,CH,People's Republic of China,148
Q7003,Dijon,47.323055555556,5.0419444444444,7090,FR,FR,France,142
Q41963,Sri Jayawardenepura Kotte,6.9,79.916388888889,7089,LK,CE,Sri Lanka,854
Q2758,Mönchengladbach,51.2,6.4333333333333,7088,DE,GM,Germany,183
Q2861,Rostock,54.083333333333,12.133333333333,7084,DE,GM,Germany,183
Q8826,Palma de Mallorca,39.566666666667,2.6497222222222,7081,ES,SP,Spain,29
Q199440,Mexicali,32.663333333333,-115.46777777778,7074,MX,MX,Mexico,96
Q22595,Aurora,41.76,-88.298611111111,7073,US,US,United States of America,30
Q212332,Kanchipuram,12.830833333333,79.707777777778,7057,IN,IN,India,668
Q132997,Florianópolis,-27.593280555556,-48.553047222222,7052,BR,BR,Brazil,155
Q47048,Oulu,65.01416666666667,25.471944444444443,7046,FI,FI,Finland,33
Q495357,Antioch,38.005,-121.80583333333,7041,US,US,United States of America,30
Q48344,Recife,-8.0538888888889,-34.880833333333,7034,BR,BR,Brazil,155
Q1724,Saarbrücken,49.233333333333,7,7022,DE,GM,Germany,183
Q3635276,Kurnool,15.822222222222,78.035,7019,IN,IN,India,668
Q160320,Dammam,26.433333333333334,50.1,7018,SA,SA,Saudi Arabia,851
Q47772,Bariloche,-41.15,-71.3,7016,AR,AR,Argentina,414
Q41283,Gwangju,35.166666666667,126.91666666667,6984,KR,KS,South Korea,884
Q132830,Douala,4.05,9.7,6981,CM,CM,Cameroon,1009
Q199909,Karbala,32.616666666667,44.033333333333,6954,IQ,IZ,Iraq,796
Q2865,Kassel,51.315777777778,9.4979166666667,6925,DE,GM,Germany,183
Q3376,Trento,46.06666667,11.11666667,6912,IT,IT,Italy,38
Q3004,Ingolstadt,48.763611111111,11.426111111111,6901,DE,GM,Germany,183
Q3004,Ingolstadt,48.763611111111,11.426111111111,6901,,,,154195
Q207756,Tauranga,-37.685833333333,176.16666666667,6865,NZ,NZ,New Zealand,664
Q1639492,Rajamahendravaram,16.983333333333,81.783333333333,6847,IN,IN,India,668
Q201832,Aligarh,27.88,78.08,6844,IN,IN,India,668
Q490434,Ventura,34.26778,-119.254206,6828,US,US,United States of America,30
Q44210,Córdoba,-31.416666666667,-64.183333333333,6823,AR,AR,Argentina,414
Q30340,Zhengzhou,34.74919,113.66051,6818,CN,CH,People's Republic of China,148
Q500481,Overland Park,38.940072222222,-94.680697222222,6813,US,US,United States of America,30
Q335708,6th of October City,29.936111111111,30.926944444444,6809,EG,EG,Egypt,79
Q3659,N'Djamena,12.11,15.05,6792,TD,CD,Chad,657
Q466221,Sylhet,24.9,91.866666666667,6776,BD,BG,Bangladesh,902
Q214178,Nablus,32.216111111111,35.266111111111,6775,,,,219060
Q214178,Nablus,32.216111111111,35.266111111111,6775,,,,42620
Q214178,Nablus,32.216111111111,35.266111111111,6775,,,,219060
Q48338,Kayseri,38.733333333333,35.483333333333,6771,TR,TU,Turkey,43
Q44016,Markham,43.8833,-79.25,6770,CA,CA,Canada,16
Q48256,Dnipro,48.45,34.983333333333,6765,UA,UP,Ukraine,212
Q48256,Dnipro,48.45,34.983333333333,6765,,,,243610
Q207749,Thane,19.18,72.963333333333,6749,IN,IN,India,668
Q8471,Reggio Calabria,38.114438888889,15.65,6743,IT,IT,Italy,38
Q46852,Iași,47.162222222222,27.588888888889,6718,RO,RO,Romania,218
Q26887,Davenport,41.543055555556,-90.590833333333,6706,US,US,United States of America,30
Q2107,Wuppertal,51.266666666667,7.1833333333333,6699,DE,GM,Germany,183
Q237847,Solapur,17.683333333333,75.916666666667,6696,IN,IN,India,668
Q860452,Bilaspur,22.15,82.016666666667,6692,IN,IN,India,668
Q200028,Hamilton,-37.783333333333,175.28333333333,6678,NZ,NZ,New Zealand,664
Q288,Tours,47.392777777778,0.68833333333333,6660,FR,FR,France,142
Q51694,Grand Prairie,32.715278,-97.016944,6649,US,US,United States of America,30
Q42807,Nîmes,43.836944444444,4.36,6626,FR,FR,France,142
Q68481,Fuzhou,26.076944444444,119.29166666667,6615,CN,CH,People's Republic of China,148
Q207324,Cuttack,20.45,85.866666666667,6608,IN,IN,India,668
Q491350,Orange,33.803055555556,-117.8325,6605,US,US,United States of America,30
Q49276,Hialeah,25.860555555556,-80.293888888889,6590,US,US,United States of America,30
Q41604,Amiens,49.891944444444,2.2977777777778,6581,FR,FR,France,142
Q2795,Chemnitz,50.833333333333,12.916666666667,6569,DE,GM,Germany,183
Q47837,Laayoune,27.15,-13.2,6563,MA,MO,Morocco,1028
Q76010,Santa Rosa,14.316666666667,121.11666666667,6560,PH,RP,Philippines,928
Q495377,Richmond,37.935833333333,-122.34777777778,6544,US,US,United States of America,30
Q491128,Fontana,34.1,-117.46666666667,6537,US,US,United States of America,30
Q29888,Aswan,24.088919444444,32.899730555556,6528,EG,EG,Egypt,79
Q42168,Clermont-Ferrand,45.779722222222,3.0869444444444,6525,FR,FR,France,142
Q163490,Sidon,33.560555555556,35.398055555556,6519,LB,LE,Lebanon,822
Q13360,Reggio nell'Emilia,44.7,10.633333333333,6515,IT,IT,Italy,38
Q231318,Johor Bahru,1.4555555555556,103.76111111111,6505,MY,MY,Malaysia,833
Q15695,Salamanca,40.96666666666667,-5.663888888888889,6493,ES,SP,Spain,29
Q3929,Port Louis,-20.166666666667,57.5,6482,MU,MP,Mauritius,1027
Q41185,Caen,49.182222222222,-0.37055555555556,6465,FR,FR,France,142
Q584295,Udupi,13.332222222222,74.746111111111,6461,IN,IN,India,668
Q128228,Killeen,31.105555555556,-97.726666666667,6452,US,US,United States of America,30
Q208262,Eastbourne,50.766389,0.286111,6447,GB,UK,United Kingdom,145
Q13498,Taranto,40.418055555556,17.240833333333,6433,IT,IT,Italy,38
Q15699,León,42.598888888889,-5.5669444444444,6425,ES,SP,Spain,29
Q3104,Koblenz,50.359722222222,7.5977777777778,6398,DE,GM,Germany,183
Q129259,Niš,43.319166666667,21.896111111111,6390,RS,RI,Serbia,403
Q34412,Foshan,23.029167,113.105556,6379,CN,CH,People's Republic of China,148
Q6537,Vicenza,45.55,11.55,6378,IT,IT,Italy,38
Q9920,Haarlem,52.380277777778,4.6405555555556,6347,NL,NL,Netherlands,55
Q163798,Thrissur,10.52,76.21,6345,IN,IN,India,668
Q251329,Gaya,24.75,85.016666666667,6327,IN,IN,India,668
Q2337,Smolensk,54.782777777778,32.045277777778,6309,RU,RS,Russia,159
Q3274,Managua,12.15,-86.266666666667,6294,NI,NU,Nicaragua,811
Q170688,Santa Cruz de la Sierra,-17.789166666667,-63.1975,6294,BO,BL,Bolivia,750
Q61092,George Town,5.4145,100.3292,6286,MY,MY,Malaysia,833
Q208162,Patiala,30.566666666667,76.633333333333,6271,IN,IN,India,668
Q61434,Nellore,14.433333333333,79.966666666667,6256,IN,IN,India,668
Q51696,Mesquite,32.78278,-96.60972,3301,US,US,United States of America,30
Q14155,Kupang,-10.163333333333,123.57777777778,3295,ID,ID,Indonesia,252
Q864965,Petaling Jaya,3.10726,101.60671,3294,MY,MY,Malaysia,833
Q2805,Krefeld,51.333333333333,6.5666666666667,3280,DE,GM,Germany,183
Q2187,Meycauayan,14.733333333333,120.95,3268,PH,RP,Philippines,928
Q156711,Uzhhorod,48.623888888889,22.295,3267,UA,UP,Ukraine,212
Q167394,Kragujevac,44.014166666667,20.939444444444,3267,RS,RI,Serbia,403
Q59100,Shantou,23.373472,116.694111,3263,CN,CH,People's Republic of China,148
Q332319,Mek'ele,13.483333333333,39.466666666667,3261,ET,ET,Ethiopia,115
Q115256,Taoyuan City,24.85,121.21666666667,3259,TW,TW,Taiwan,865
Q1949125,Jalpaiguri,26.516666666667,88.733333333333,3249,IN,IN,India,668
Q171617,Campinas,-22.900913888889,-47.057294444444,3247,BR,BR,Brazil,155
Q45942,Annaba,36.9,7.7666666666667,3241,DZ,AG,Algeria,262
Q15760,Novorossiysk,44.716666666667,37.766666666667,3236,RU,RS,Russia,159
Q243766,Bucaramanga,7.1186111111111,-73.116111111111,3233,CO,CO,Colombia,739
Q13367,Forlì,44.2225,12.040833333333,3226,IT,IT,Italy,38
Q173699,Setúbal,38.524305555556,-8.8926111111111,3221,PT,PO,Portugal,45
Q243327,Changwon,35.228055555556,128.68111111111,3216,KR,KS,South Korea,884
Q201101,Rize,41.016666666667,40.516666666667,3207,TR,TU,Turkey,43
Q170616,Chiba,35.6,140.1,3202,JP,JA,Japan,17
Q51695,Pasadena,29.676111111111,-95.173888888889,3201,US,US,United States of America,30
Q605167,Potchefstroom,-26.715,27.103333333333,3197,ZA,SF,South Africa,258
Q193486,Dire Dawa,9.5833333333333,41.866666666667,3194,ET,ET,Ethiopia,115
Q51687,Surprise,33.629194444444,-112.36779722222,3183,US,US,United States of America,30
Q1730,Tanauan,14.083333333333,121.15,3180,PH,RP,Philippines,928
Q170996,Galați,45.423333333333,28.0425,3169,RO,RO,Romania,218
Q214485,Kisumu,-0.1,34.75,3167,KE,KE,Kenya,114
Q249994,Hsinchu,24.804722222222,120.97138888889,3161,TW,TW,Taiwan,865
Q112813,Durango,24.022777777778,-104.65444444444,3154,MX,MX,Mexico,96
Q179665,Urmia,37.55,45.1,3153,IR,IR,Iran,794
Q134494,Győr,47.684166666667,17.634444444444,3149,HU,HU,Hungary,28
Q197379,Zhangjiajie,29.12548,110.48442,3149,CN,CH,People's Republic of China,148
Q712644,Baramulla,34.2,74.34,3147,IN,IN,India,668
Q192271,Guiyang,26.579444444444,106.70777777778,3139,CN,CH,People's Republic of China,148
Q51686,Peoria,33.5825,-112.23861111111,3137,US,US,United States of America,30
Q170967,Denizli,37.773055555556,29.087777777778,3133,TR,TU,Turkey,43
Q173591,Arad,46.166666666667,21.316666666667,3123,RO,RO,Romania,218
Q199500,Gyumri,40.783333333333,43.833333333333,3123,AM,AM,Armenia,399
Q2936,Oldenburg,53.143888888889,8.2138888888889,3122,DE,GM,Germany,183
Q747840,Barisal,22.7,90.366666666667,3122,BD,BG,Bangladesh,902
Q170903,Guimarães,41.445,-8.2908333333333,3113,PT,PO,Portugal,45
Q192225,Netanya,32.332777777778,34.86,3112,IL,IS,Israel,801
Q192225,Netanya,32.332777777778,34.86,3112,IL,IS,Israel,801
Q322149,Eldoret,0.51666666666667,35.283333333333,3112,KE,KE,Kenya,114
Q1014782,Ormoc,11.016666666667,124.61666666667,3104,PH,RP,Philippines,928
Q40584,San Fernando,16.616666666667,120.31666666667,3100,PH,RP,Philippines,928
Q146723,Kisangani,0.51527777777778,25.191111111111,3098,CD,CG,Democratic Republic of the Congo,974
Q15095,Albacete,38.995555555556,-1.8558333333333,3092,ES,SP,Spain,29
Q69060,Xining,36.62386,101.77866,3086,CN,CH,People's Republic of China,148
Q6049,Kyzyl,51.716666666667,94.45,3082,RU,RS,Russia,159
Q59799,Santo Tomas,14.083333333333,121.18333333333,3081,PH,RP,Philippines,928
Q590849,Arvada,39.8027644,-105.0874842,3079,US,US,United States of America,30
Q3901,Moroni,-11.703611111111,43.253611111111,3067,KM,CN,Comoros,970
Q103217,Częstochowa,50.8,19.116666666667,3065,PL,PL,Poland,36
Q370456,George,-33.9667,22.45,3065,ZA,SF,South Africa,258
Q497341,Xianyang,34.35,108.716667,3056,CN,CH,People's Republic of China,148
Q46940,Alcalá de Henares,40.481815,-3.364305,3049,ES,SP,Spain,29
Q484706,Karaganda,49.8,73.116666666667,3047,KZ,KZ,Kazakhstan,232
Q322155,Rajshahi,24.366666666667,88.6,3047,BD,BG,Bangladesh,902
Q6934,Blagoveshchensk,50.257777777778,127.53638888889,3045,RU,RS,Russia,159
Q12191144,New Cairo,30.03,31.47,3041,EG,EG,Egypt,79
Q1856,Malaybalay,8.1575,125.12778,3035,PH,RP,Philippines,928
Q852238,Onitsha,6.1666666666667,6.7833333333333,3033,NG,NI,Nigeria,1033
Q263837,Ozamiz,8.15,123.85,3033,PH,RP,Philippines,928
Q386991,Torreón,25.54389,-103.41898,3033,MX,MX,Mexico,96
Q8247,Biratnagar,26.483333333333,87.283333333333,3033,NP,NP,Nepal,837
Q948129,Westminster,39.836111111111,-105.03722222222,3028,US,US,United States of America,30
Q127623,Vantaa,60.3,25.033333333333,3027,FI,FI,Finland,33
Q725168,Tagum,7.44778,125.80778,3019,PH,RP,Philippines,928
Q875070,Dagupan,16.033333333333,120.33333333333,3000,PH,RP,Philippines,928
Q185157,Tétouan,35.566666666667,-5.3666666666667,2993,MA,MO,Morocco,1028
Q1249888,Dera Ismail Khan,31.816666666667,70.916666666667,2991,PK,PK,Pakistan,843
Q171714,Kerman,30.283333333333,57.066666666667,2989,IR,IR,Iran,794
Q168888,Maceió,-9.6658333333333,-35.735,2986,BR,BR,Brazil,155
Q81137,Olomouc,49.593888888889,17.250833333333,2977,CZ,EZ,Czech Republic,213
Q244004,Sétif,36.19,5.41,2969,DZ,AG,Algeria,262
Q207801,Bijeljina,44.75,19.216666666667,2967,BA,BK,Bosnia and Herzegovina,225
Q595550,El Monte,34.073333333333,-118.0275,2954,US,US,United States of America,30
Q185156,Guantánamo,20.138333,-75.206111,2947,CU,CU,Cuba,241
Q180921,Omdurman,15.683517,32.462887,2932,SD,SU,Sudan,1049
Q4803,Surakarta,-7.5666666666667,110.81666666667,2930,ID,ID,Indonesia,252
Q129649,İzmit,40.76555555555556,29.940555555555555,2929,TR,TU,Turkey,43
Q467421,Americana,-22.738888888889,-47.330833333333,2928,BR,BR,Brazil,155
Q793,Zwolle,52.516666666667,6.1,2925,NL,NL,Netherlands,55
Q160173,Ruse,43.8475,25.954444444444,2920,BG,BU,Bulgaria,219
Q13464,Foggia,41.45845,15.55188,2910,IT,IT,Italy,38
Q738303,Reynosa,26.092222222222,-98.277777777778,2910,MX,MX,Mexico,96
Q134703,Kahramanmaraş,37.5875,36.945277777778,2908,TR,TU,Turkey,43
Q55737,Mabalacat,15.216666666667,120.58333333333,2907,PH,RP,Philippines,928
Q170513,Taganrog,47.233333333333,38.9,2906,RU,RS,Russia,159
Q102397,Miskolc,48.1,20.783333333333335,2901,HU,HU,Hungary,28
Q58710,Langfang,39.51962,116.70056,2898,CN,CH,People's Republic of China,148
Q335506,Salto,-31.388333333333,-57.960555555556,2894,UY,UY,Uruguay,77
Q210493,Yantai,37.399722,121.266389,2891,CN,CH,People's Republic of China,148
Q42061,Goyang,37.656388888889,126.835,2887,KR,KS,South Korea,884
Q1020674,Samal,7.05,125.73333055556,2887,PH,RP,Philippines,928
Q528432,Bamenda,5.9333333333333,10.166666666667,2885,CM,CM,Cameroon,1009
Q51111,Manizales,4.8142777777778,-75.694558333333,2884,CO,CO,Colombia,739
Q915,Perm,58.013888888889,56.248888888889,2877,RU,RS,Russia,159
Q93910,Novokuznetsk,53.75,87.116666666667,2858,RU,RS,Russia,159
Q1856408,Piedras Negras,28.7,-100.52305555556,2853,MX,MX,Mexico,96
Q59223,Zhongshan,22.533333333333,113.35,2845,CN,CH,People's Republic of China,148
Q504657,Idlib,35.933333333333,36.633333333333,2841,SY,SY,Syria,858
Q542154,Koronadal,6.5,124.85,2829,PH,RP,Philippines,928
Q53077,Saltillo,25.433333333333,-101,2809,MX,MX,Mexico,96
Q179585,Ploiești,44.938611111111,26.0225,2806,RO,RO,Romania,218
Q179585,Ploiești,44.938611111111,26.0225,2806,RO,RO,Romania,218
Q502023,Coatzacoalcos,18.135833333333,-94.463333333333,2800,MX,MX,Mexico,96
Q759381,Khamis Mushait,18.3,42.733333333333,2799,SA,SA,Saudi Arabia,851
Q1054450,Centurion,-25.860277777778,28.189444444444,2798,ZA,SF,South Africa,258
Q3075,Fürth,49.478333333333,10.990277777778,2796,DE,GM,Germany,183
Q3075,Fürth,49.478333333333,10.990277777778,2796,DE,GM,Germany,183
Q58794,Satna,24.16,80.83,2793,IN,IN,India,668
Q2678,Gomel,52.441666666667,30.983333333333,2791,BY,BO,Belarus,184
Q2678,Gomel,52.441666666667,30.983333333333,2791,BY,BO,Belarus,184
Q186349,Târgu Mureș,46.549722222222,24.559722222222,2787,RO,RO,Romania,218
Q1637471,Vidisha,23.5239,77.8061,2786,IN,IN,India,668
Q92212,Opole,50.672222222222,17.925277777778,2782,PL,PL,Poland,36
Q5384,Kirov,58.6,49.65,2775,RU,RS,Russia,159
Q42075,Gunpo,37.3675,126.94694444444,2761,KR,KS,South Korea,884
Q485496,Shymkent,42.3,69.6,2746,KZ,KZ,Kazakhstan,232
Q160687,Valdivia,-39.8142,-73.2459,2743,CL,CI,Chile,298
Q243846,Hillah,32.483333333333,44.433333333333,2740,IQ,IZ,Iraq,796
Q14499,Samarinda,-0.50222222222222,117.15361111111,2740,ID,ID,Indonesia,252
Q3185,Hildesheim,52.15,9.95,2739,DE,GM,Germany,183
Q3042,Offenbach am Main,50.1,8.7666666666667,2738,DE,GM,Germany,183
Q50180,Santiago,16.683333333333,121.55,2731,PH,RP,Philippines,928
Q57970,Changzhou,31.812166666666666,119.96916666666667,2723,CN,CH,People's Republic of China,148
Q3214,Cottbus,51.760555555556,14.334166666667,2713,DE,GM,Germany,183
Q1944489,San Pedro Garza García,25.664166666667,-100.40166666667,2710,MX,MX,Mexico,96
Q173545,Hama,35.133333333333,36.75,2710,SY,SY,Syria,858
Q1003496,Eluru,16.7,81.1,2703,IN,IN,India,668
Q6647,Lalitpur,27.6833,85.3333,2702,NP,NP,Nepal,837
Q47282,Osh,40.533333333333,72.783333333333,2697,KG,KG,Kyrgyzstan,813
Q9125,Winterthur,47.4992,8.72671,2690,,,,39
Q125293,Puebla City,19.051388888889,-98.217777777778,4048,MX,MX,Mexico,96
Q25096,Cabuyao,14.275,121.125,4045,PH,RP,Philippines,928
Q311266,Khobar,26.3,50.216666666667,4039,SA,SA,Saudi Arabia,851
Q5239,Vladikavkaz,43.016666666667,44.65,4034,RU,RS,Russia,159
Q5337,Orenburg,51.766666666667,55.1,4023,RU,RS,Russia,159
Q6014,Barnaul,53.356666666667,83.787222222222,4022,RU,RS,Russia,159
Q171632,Maracaibo,10.633333333333,-71.633333333333,4020,VE,VE,Venezuela,717
Q2684,Vladimir,56.133333333333,40.416666666667,4019,RU,RS,Russia,159
Q154814,Bandar Abbas,27.2,56.25,4004,IR,IR,Iran,794
Q208318,Kaduna,10.523055555556,7.4402777777778,3993,NG,NI,Nigeria,1033
Q181376,Grodno,53.666666666667,23.816666666667,3991,BY,BO,Belarus,184
Q1019949,Surigao City,9.7833333333333,125.48333333333,3980,PH,RP,Philippines,928
Q174684,Tuzla,44.538055555556,18.676111111111,3980,BA,BK,Bosnia and Herzegovina,225
Q131290,Ganja,40.682777777778,46.360555555556,3966,AZ,AJ,Azerbaijan,227
Q816809,Palm Bay,27.997922222222,-80.670008333333,3964,US,US,United States of America,30
Q645725,Bhiwandi,19.3,73.066666666667,3962,IN,IN,India,668
Q8131,Palembang,-2.9833333333333,104.76444444444,3958,ID,ID,Indonesia,252
Q134514,Suez,29.966666666667,32.533333333333,3953,EG,EG,Egypt,79
Q61302,Chihuahua City,28.635277777778,-106.08888888889,3949,MX,MX,Mexico,96
Q193289,Iquitos,-3.7333333333333,-73.25,3949,PE,PE,Peru,419
Q14492,Balikpapan,-1.1488888888889,116.90305555556,3946,ID,ID,Indonesia,252
Q5869,Lhasa,29.65,91.1,3939,CN,CH,People's Republic of China,148
Q818106,Benoni,-26.188333333333,28.320555555556,3935,ZA,SF,South Africa,258
Q170047,Samarra,34.1959,43.88568,3933,IQ,IZ,Iraq,796
Q868527,Turpan,42.95,89.182222222222,3932,CN,CH,People's Republic of China,148
Q13329,Piacenza,45.05,9.7,3930,IT,IT,Italy,38
Q1341,Tolyatti,53.516666666667,49.416666666667,3922,,,,34266
Q1341,Tolyatti,53.516666666667,49.416666666667,3922,RU,RS,Russia,159
Q1341,Tolyatti,53.516666666667,49.416666666667,3922,,,,15180
Q185125,Hamamatsu,34.716666666667,137.73333333333,3920,JP,JA,Japan,17
Q159610,Vlorë,40.45,19.483333333333,3917,AL,AL,Albania,222
Q10127,Tangerang,-6.1783333333333,106.63194444444,3897,ID,ID,Indonesia,252
Q199889,Kumamoto,32.80305555555555,130.70777777777778,3877,JP,JA,Japan,17
Q990403,Maia,41.233333333333,-8.6166666666667,3877,PT,PO,Portugal,45
Q239097,Deir ez-Zor,35.333333333333,40.15,3875,SY,SY,Syria,858
Q846939,Spanish Town,17.996111111111,-76.954722222222,3874,JM,JM,Jamaica,766
Q12273,Gijón,43.52931,-5.67732,3874,ES,SP,Spain,29
Q183124,Cochabamba,-17.3935419,-66.1570139,3869,BO,BL,Bolivia,750
Q15088,Tarragona,41.11868,1.24532,3868,ES,SP,Spain,29
Q171810,Alanya,36.543611111111,31.999722222222,3865,TR,TU,Turkey,43
Q505557,Coral Springs,26.270555555556,-80.259166666667,3865,US,US,United States of America,30
Q159273,Arequipa,-16.398763888889,-71.536883333333,3857,PE,PE,Peru,419
Q139229,Saguenay,48.4167,-71.0667,3857,CA,CA,Canada,16
Q30951,Jalgaon,21.016666666667,75.566666666667,3852,IN,IN,India,668
Q42097,Gyeongju,35.85,129.21666666667,3840,KR,KS,South Korea,884
Q462804,Lakewood,39.706389,-105.102778,3825,US,US,United States of America,30
Q218861,Gondar,12.6,37.466666666667,3823,ET,ET,Ethiopia,115
Q45779,Pécs,46.07083333333333,18.233055555555556,3821,HU,HU,Hungary,28
Q2704,Pescara,42.464277777778,14.214188888889,3818,IT,IT,Italy,38
Q982550,Pearland,29.5544,-95.2958,3818,US,US,United States of America,30
Q81046,Charleroi,50.416666666667,4.4441666666667,3814,BE,BE,Belgium,31
Q1709,Schwerin,53.633333333333,11.416666666667,3810,DE,GM,Germany,183
Q2209,Roxas,11.583333333333,122.75,3803,PH,RP,Philippines,928
Q311341,Al-Hasa,25.429444,49.621944,3800,SA,SA,Saudi Arabia,851
Q59095,Zhuhai,22.27694,113.56778,3797,CN,CH,People's Republic of China,148
Q874270,Pagadian,7.8333333333333,123.43333333333,3794,PH,RP,Philippines,928
Q274584,San Pedro Sula,15.5,-88.033333333333,3788,HN,HO,Honduras,783
Q68695,Quanzhou,24.91389,118.58583,3788,CN,CH,People's Republic of China,148
Q28911,Lahti,60.983333333333,25.655555555556,3751,FI,FI,Finland,33
Q41473,Nizamabad,18.671997222222,78.094,3746,IN,IN,India,668
Q63160,Trece Martires,14.283333333333,120.86666666667,3743,PH,RP,Philippines,928
Q3126,Erlangen,49.596388888889,11.004444444444,3742,DE,GM,Germany,183
Q3126,Erlangen,49.596388888889,11.004444444444,3742,DE,GM,Germany,183
Q2288,Tver,56.857827777778,35.921927777778,3737,RU,RS,Russia,159
Q42148,Chuncheon,37.874722222222,127.73416666667,3735,KR,KS,South Korea,884
Q271911,Dispur,26.15,91.77,3732,IN,IN,India,668
Q25411,Helsingborg,56.042411686174,12.720996359515,3714,SE,SW,Sweden,34
Q83178,Almere,52.375833333333,5.2255555555556,3710,NL,NL,Netherlands,55
Q15679,Badajoz,38.880277777778,-6.9752777777778,3709,ES,SP,Spain,29
Q72778,Taiyuan,37.87326,112.54245,3692,CN,CH,People's Republic of China,148
Q128261,Carrollton,32.99,-96.893333333333,3689,US,US,United States of America,30
Q25563078,Karimnagar,18.43333333,79.15,3682,IN,IN,India,668
Q172415,Kutaisi,42.25,42.7,3679,GE,GG,Georgia,230
Q593022,Olathe,38.8808,-94.8031,3662,US,US,United States of America,30
Q157144,Vinnytsia,49.237222222222,28.467222222222,3656,UA,UP,Ukraine,212
Q499401,Warren,42.491944444444,-83.023888888889,3642,US,US,United States of America,30
Q30651,Kadapa,14.466666666667,78.816666666667,3640,IN,IN,India,668
Q570937,Ordos City,39.815,109.9975,3638,CN,CH,People's Republic of China,148
Q162279,Kuopio,62.8925,27.678333333333,3628,FI,FI,Finland,33
Q12447537,Medinipur,22.433333333333,87.333333333333,3625,IN,IN,India,668
Q990001,Heroica Nogales,31.318611111111,-110.94583333333,3619,MX,MX,Mexico,96
Q168866,Eskişehir,39.776666666667,30.520555555556,3613,TR,TU,Turkey,43
Q200267,Kamakura,35.319722222222225,139.5525,3609,JP,JA,Japan,17
Q243325,Khulna,22.816666666667,89.55,3609,BD,BG,Bangladesh,902
Q2734589,Kalyani,22.975,88.434444444444,3601,IN,IN,India,668
Q159835,Batman,37.883333333333,41.133333333333,3600,TR,TU,Turkey,43
Q42140,Jeonju,35.821944444444,127.14888888889,3591,KR,KS,South Korea,884
Q999076,Dera Ghazi Khan,30.05,70.633333333333,3587,PK,PK,Pakistan,843
Q494715,Norwalk,33.906944444444,-118.08333333333,3580,US,US,United States of America,30
Q168193,Najaf,32.028951,44.339621,3580,IQ,IZ,Iraq,796
Q279951,Cuddalore,11.75,79.75,3563,IN,IN,India,668
Q199712,Çanakkale,40.15,26.4,3552,TR,TU,Turkey,43
Q3619248,Vizianagaram,18.116666666667,83.416666666667,3529,IN,IN,India,668
Q345204,Dakhla,23.716666666667,-15.95,3526,MA,MO,Morocco,1028
Q189823,Haikou,20.02,110.32,3525,CN,CH,People's Republic of China,148
Q598,Rzeszów,50.05,22,3507,PL,PL,Poland,36
Q160450,Samsun,41.286666666667,36.33,3507,TR,TU,Turkey,43
Q1895,Petrozavodsk,61.783333333333,34.35,3502,RU,RS,Russia,159
Q170287,Subotica,46.098333333333,19.67,3501,RS,RI,Serbia,403
Q147089,Manisa,38.633333333333,27.416666666667,3498,TR,TU,Turkey,43
Q11025,Semarang,-6.9666666666667,110.41666666667,3497,ID,ID,Indonesia,252
Q193370,Montreuil,48.860277777778,2.4430555555556,3493,FR,FR,France,142
Q156726,Ivano-Frankivsk,48.922777777778,24.710555555556,3486,UA,UP,Ukraine,212
Q180084,Ife,7.4666666666667,4.5666666666667,3479,NG,NI,Nigeria,1033
Q25412,Västerås,59.617319380941,16.542157497094,3474,SE,SW,Sweden,34
Q50178,Cauayan,16.766666666667,121.78333333333,3469,PH,RP,Philippines,928
Q19491,Nha Trang,12.25,109.18333333333,3464,VN,VM,Vietnam,881
Q1266637,Dibrugarh,27.483333333333,95,3452,IN,IN,India,668
Q853945,Dindigul,10.35,77.95,3449,IN,IN,India,668
Q2746,Ryazan,54.616666666667,39.716666666667,3433,RU,RS,Russia,159
Q429215,Sangli,16.866666666667,74.566666666667,3433,IN,IN,India,668
Q59227,Chaozhou,23.67,116.63,3428,CN,CH,People's Republic of China,148
Q105084,Gliwice,50.29761,18.67658,3428,PL,PL,Poland,36
Q179608,Nanning,22.81918,108.31501,3426,CN,CH,People's Republic of China,148
Q213014,Akola,20.733333333333,77,3424,IN,IN,India,668
Q134291,Mersin,36.8,34.616666666667,3421,TR,TU,Turkey,43
Q72818,Haiphong,20.8,106.66666666667,3415,VN,VM,Vietnam,881
Q211243,Yinchuan,38.47947,106.22536,3408,CN,CH,People's Republic of China,148
Q170366,Ahwaz,31.320277777778,48.669166666667,3408,IR,IR,Iran,794
Q321079,Jos,9.9333333333333,8.8833333333333,3401,NG,NI,Nigeria,1033
Q2180,Malolos,14.843333333333,120.81138888889,3397,PH,RP,Philippines,928
Q168057,Craiova,44.333333333333,23.816666666667,3385,RO,RO,Romania,218
Q42651,Wuxi,31.566667,120.283333,3385,CN,CH,People's Republic of China,148
Q171943,Nanchang,28.684167,115.887222,3380,CN,CH,People's Republic of China,148
Q202453,Novi Pazar,43.15,20.516666666667,3376,RS,RI,Serbia,403
Q343973,İnegöl,40.080555555556,29.509722222222,3336,TR,TU,Turkey,43
Q165444,Tikrit,34.6,43.683333333333,3333,IQ,IZ,Iraq,796
Q559834,Bharatpur,27.217222222222,77.49,3327,IN,IN,India,668
Q25732,Örebro,59.2669260014,15.196522467624,3321,SE,SW,Sweden,34
Q36160,Hội An,15.873277777777778,108.33269444444444,3317,VN,VM,Vietnam,881
Q42108,Seongnam,37.438611111111,127.13777777778,3315,KR,KS,South Korea,884
Q82765,Olsztyn,53.78,20.494166666667,3314,PL,PL,Poland,36
Q715,Heilbronn,49.140428,9.217953,3310,DE,GM,Germany,183
Q131620,Natal,-5.795,-35.208888888889,3307,BR,BR,Brazil,155
Q201051,Rishon LeZion,31.95,34.8,3306,IL,IS,Israel,801
Q2971,Paderborn,51.71666666666667,8.766666666666667,3303,DE,GM,Germany,183
Q49242,Corpus Christi,27.742777777778,-97.401944444444,21996,US,US,United States of America,30
Q1479,Bordeaux,44.837777777778,-0.57944444444444,21987,FR,FR,France,142
Q29364,Montgomery,32.361666666667,-86.279166666667,21868,US,US,United States of America,30
Q844908,Crawley,51.1157,-0.1937,21801,GB,UK,United Kingdom,145
Q186702,Chattanooga,35.045555555556,-85.267222222222,21581,US,US,United States of America,30
Q49241,Lexington,38.029722222222,-84.494722222222,21431,US,US,United States of America,30
Q6225,Coventry,52.416666666667,-1.5166666666667,21410,GB,UK,United Kingdom,145
Q16520,Busan,35.1,129.04027777778,21362,KR,KS,South Korea,884
Q42956,Harbin,45.75,126.63333333333,21350,CN,CH,People's Republic of China,148
Q49145,New Haven,41.308333333333,-72.925,21313,US,US,United States of America,30
Q11568,Darwin,-12.438055555556,130.84111111111,21284,AU,AS,Australia,408
Q36647,Cork,51.9,-8.4730555555556,21263,IE,EI,Ireland,27
Q16666,Nanjing,32.05,118.76666666667,21248,CN,CH,People's Republic of China,148
Q82070,Tyre,33.266666666667,35.2,21131,LB,LE,Lebanon,822
Q238508,Gurugram,28.466666666667,77.033333333333,21112,IN,IN,India,668
Q43301,Fresno,36.781666666667,-119.79222222222,21082,US,US,United States of America,30
Q36405,Aberdeen,57.15,-2.1,21014,GB,UK,United Kingdom,145
Q1891,Bologna,44.493888888889,11.342777777778,21005,IT,IT,Italy,38
Q1718,Düsseldorf,51.231144444444,6.7723805555556,20749,DE,GM,Germany,183
Q34692,Kingston,17.971388888889,-76.793055555556,20728,JM,JM,Jamaica,766
Q41211,San Juan,18.45,-66.066666666667,20728,US,US,United States of America,30
Q163132,Akron,41.073055555556,-81.517777777778,20703,US,US,United States of America,30
Q79875,Mobile,30.727669444444,-88.052672222222,20702,US,US,United States of America,30
Q838785,Temecula,33.503333333333,-117.12361111111,20691,US,US,United States of America,30
Q1792,Gdańsk,54.366666666667,18.633333333333,20679,PL,PL,Poland,36
Q216,Vilnius,54.683333333333,25.283333333333,20564,LT,LH,Lithuania,37
Q3787,Abuja,9.0555555555556,7.4913888888889,20526,NG,NI,Nigeria,1033
Q2123,Regina,50.454722222222,-104.60666666667,20483,CA,CA,Canada,16
Q107126,Arlington County,38.880277777778,-77.108333333333,20481,US,US,United States of America,30
Q131335,Sioux Falls,43.536388888889,-96.731666666667,20429,US,US,United States of America,30
Q41183,Aleppo,36.2,37.15,20417,SY,SY,Syria,858
Q41183,Aleppo,36.2,37.15,20417,SY,SY,Syria,858
Q1715,Hanover,52.374444444444,9.7386111111111,20223,DE,GM,Germany,183
Q123709,Dundee,56.464,-2.97,20139,GB,UK,United Kingdom,145
Q3561,Algiers,36.776388888889,3.0586111111111,20137,DZ,AG,Algeria,262
Q184587,Grand Rapids,42.96336,-85.66809,20118,US,US,United States of America,30
Q1513,Nagpur,21.153888888889,79.083055555556,20098,IN,IN,India,668
Q192517,Boulder,40.019444444444,-105.29277777778,20048,US,US,United States of America,30
Q1773,Riga,56.9475,24.106944444444,19989,LV,LG,Latvia,211
Q212826,West Bromwich,52.516666666667,-1.9833333333333,19963,GB,UK,United Kingdom,145
Q49267,Henderson,36.031666666667,-114.98138888889,19961,US,US,United States of America,30
Q1799,Wrocław,51.10773,17.03533,19917,PL,PL,Poland,36
Q34109,Fargo,46.877222222222,-96.789444444444,19883,US,US,United States of America,30
Q49236,St. Petersburg,27.773055555556,-82.64,19847,US,US,United States of America,30
Q10566,Saskatoon,52.133333333333,-106.68333333333,19804,CA,CA,Canada,16
Q219656,Macon,32.84069,-83.6324,19787,US,US,United States of America,30
Q128244,Waco,31.551388888889,-97.155833333333,19744,US,US,United States of America,30
Q170115,Srinagar,34.091111111111,74.806111111111,19701,IN,IN,India,668
Q14168,Pontianak,-0.020555555555556,109.34138888889,19616,ID,ID,Indonesia,252
Q167715,Thiruvananthapuram,8.5,76.899722222222,19544,IN,IN,India,668
Q140075,Gold Coast,-28.016666666667,153.4,19539,AU,AS,Australia,408
Q3826,Muscat,23.613888888889,58.592222222222,19469,OM,MU,Oman,842
Q49219,Irvine,33.684166666667,-117.7925,19455,US,US,United States of America,30
Q7525,Sevastopol,44.6,33.533333333333,19374,RU,RS,Russia,159
Q7525,Sevastopol,44.6,33.533333333333,19374,UA,UP,Ukraine,212
Q3894,Kampala,0.31361111111111,32.581111111111,19309,UG,UG,Uganda,1036
Q70,Bern,46.94798,7.44743,19282,,,,39
Q34713,Salzburg,47.7972,13.04768,19197,AT,AU,Austria,40
Q1533,Caracas,10.5,-66.933333333333,19183,VE,VE,Venezuela,717
Q199528,Dehradun,30.318,78.029,19164,IN,IN,India,668
Q38283,Yokohama,35.433333333333,139.63333333333,19027,JP,JA,Japan,17
Q131694,Aden,12.8,45.033333333333,19000,YE,YM,Yemen,805
Q1515,Abidjan,5.3363888888889,-4.0266666666667,18992,CI,IV,Ivory Coast,1008
Q130191,Norwich,52.628056,1.299167,18902,GB,UK,United Kingdom,145
Q5468,Durban,-29.858333333333,31.025,18889,ZA,SF,South Africa,258
Q66616,Indore,22.720555555556,75.847222222222,18852,IN,IN,India,668
Q4629,Surat,21.17,72.83,18844,IN,IN,India,668
Q101625,Marrakesh,31.62947,-7.98108,18841,MA,MO,Morocco,1028
Q23051,Swansea,51.616666666667,-3.95,18672,GB,UK,United Kingdom,145
Q2211,Malmö,55.593188589918,13.021423031021,18636,SE,SW,Sweden,34
Q37701,Bloemfontein,-29.1,26.216666666667,18632,ZA,SF,South Africa,258
Q485716,Glendale,34.170833333333,-118.25,18592,US,US,United States of America,30
Q49169,Stamford,41.096666666667,-73.552222222222,18568,US,US,United States of America,30
Q203263,Athens,33.955277777778,-83.383055555556,18419,US,US,United States of America,30
Q200054,Jamshedpur,22.8,86.183333333333,18377,IN,IN,India,668
Q51691,Amarillo,35.199166666667,-101.84527777778,18346,US,US,United States of America,30
Q10086,Mysore,12.30861111111111,76.65305555555555,18315,IN,IN,India,668
Q2656,Palermo,38.115658,13.361262,18282,IT,IT,Italy,38
Q5826,Xi'an,34.266666666667,108.9,18235,CN,CH,People's Republic of China,148
Q50816,Mississauga,43.6,-79.65,18227,CA,CA,Canada,16
Q40816,Benghazi,32.116666666667,20.066666666667,18190,LY,LY,Libya,1016
Q38234,Nagasaki,32.783333333333,129.86666666667,18182,JP,JA,Japan,17
Q1800,Kochi,9.9666666666667,76.283333333333,18170,IN,IN,India,668
Q49240,Stockton,37.975555555556,-121.30083333333,18129,US,US,United States of America,30
Q126148,Tangier,35.784722222222,-5.8125,18081,MA,MO,Morocco,1028
Q8851,Málaga,36.716666666667,-4.4166666666667,18079,ES,SP,Spain,29
Q49239,Toledo,41.666666666667,-83.583333333333,18048,US,US,United States of America,30
Q900,Kazan,55.790833333333,49.114444444444,18042,RU,RS,Russia,159
Q3761,Accra,5.6037,-0.187,18041,GH,GH,Ghana,117
Q37995,Yangon,16.8,96.15,18040,MM,BM,Myanmar,836
Q72259,Portsmouth,50.805833333333,-1.0872222222222,18002,GB,UK,United Kingdom,145
Q26793,Bergen,60.3925,5.3233333333333,18001,NO,NO,Norway,20
Q26793,Bergen,60.3925,5.3233333333333,18001,NO,NO,Norway,20
Q11736,Tianjin,39.146666666667,117.20555555556,17982,CN,CH,People's Republic of China,148
Q657461,Cartagena,10.423611111111,-75.525277777778,17932,VE,VE,Venezuela,717
Q657461,Cartagena,10.423611111111,-75.525277777778,17932,CO,CO,Colombia,739
Q200340,Udaipur,24.583333333333,73.683333333333,17821,IN,IN,India,668
Q30002,Chengdu,30.663611111111,104.06666666667,17805,CN,CH,People's Republic of China,148
Q199797,Tacoma,47.241388888889,-122.45944444444,17778,US,US,United States of America,30
Q78,Basel,47.560555555556,7.5905555555556,17743,,,,39
Q28848,Saint Paul,44.944166666667,-93.093611111111,17733,US,US,United States of America,30
Q34820,Santo Domingo,18.476388888889,-69.893333333333,17665,DO,DR,Dominican Republic,786
Q49247,Anaheim,33.836111111111,-117.88972222222,17649,US,US,United States of America,30
Q484678,Berkeley,37.870277777778,-122.26805555556,17626,US,US,United States of America,30
Q83317,Mosul,36.366666666667,43.116666666667,17617,IQ,IZ,Iraq,796
Q1763,Murmansk,68.966666666667,33.083333333333,17612,RU,RS,Russia,159
Q1850,Phnom Penh,11.569583333333,104.92102777778,17495,KH,CB,Cambodia,424
Q134902,Stoke-on-Trent,53,-2.1833333333333,17470,GB,UK,United Kingdom,145
Q384,Skopje,41.983333333333,21.433333333333,17467,MK,MK,North Macedonia,221
Q49273,Lubbock,33.566666666667,-101.88333333333,17411,US,US,United States of America,30
Q1491,La Paz,-16.494166666667,-68.1475,17327,BO,BL,Bolivia,750
Q1963,Khartoum,15.60308,32.52654,17279,SD,SU,Sudan,1049
Q40191,Hobart,-42.883333333333,147.31666666667,17104,AU,AS,Australia,408
Q7880,Toulouse,43.604444444444,1.4438888888889,17042,FR,FR,France,142
Q22905,Bradford,53.794,-1.751,17014,GB,UK,United Kingdom,145
Q58401,Shijiazhuang,38.042222222222,114.50861111111,16918,CN,CH,People's Republic of China,148
Q393,Szczecin,53.424722222222,14.555277777778,16801,PL,PL,Poland,36
Q393,Szczecin,53.424722222222,14.555277777778,16801,PL,PL,Poland,36
Q621549,Inglewood,33.9575,-118.34611111111,16791,US,US,United States of America,30
Q80484,Patna,25.61,85.141388888889,16723,IN,IN,India,668
Q239870,Columbus,32.492222222222,-84.940277777778,16657,US,US,United States of America,30
Q80989,Bhopal,23.25,77.416666666667,16617,IN,IN,India,668
Q485172,Ann Arbor,42.28138889,-83.74833333,16593,US,US,United States of America,30
Q127041,Mangalore,12.870277777778,74.880555555556,16571,IN,IN,India,668
Q81033,Monterrey,25.671388888889,-100.30861111111,16561,MX,MX,Mexico,96
Q1953,Yerevan,40.181388888889,44.514444444444,16542,AM,AM,Armenia,399
Q8692,Bilbao,43.262222222222,-2.9533333333333,16345,ES,SP,Spain,29
Q3805,Amman,31.95,35.933333333333,16342,JO,JO,Jordan,810
Q1436816,Tirupathi,13.65,79.42,16276,IN,IN,India,668
Q19689,Tirana,41.33,19.82,16271,AL,AL,Albania,222
Q43382,Plymouth,50.371388888889,-4.1422222222222,16244,GB,UK,United Kingdom,145
Q49243,Riverside,33.948063888889,-117.39612777778,16233,US,US,United States of America,30
Q48370,Manchester,42.990833333333,-71.463611111111,16198,US,US,United States of America,30
Q1335,Montevideo,-34.86666666666667,-56.166666666666664,16160,UY,UY,Uruguay,77
Q1113311,Peshawar,34,71.5,16150,PK,PK,Pakistan,843
Q2900,Quito,-0.218611,-78.509722,16116,EC,EC,Ecuador,736
Q855997,Sargodha,32.083611111111,72.671111111111,5031,PK,PK,Pakistan,843
Q8385,Ostrava,49.835555555556,18.2925,5027,CZ,EZ,Czech Republic,213
Q3909,Maseru,-29.31,27.48,5011,LS,LT,Lesotho,1013
Q140631,Tainan,22.983333333333,120.18333333333,5008,TW,TW,Taiwan,865
Q838787,Murrieta,33.569444444444,-117.2025,4995,US,US,United States of America,30
Q185684,Hefei,31.86389,117.28083,4995,CN,CH,People's Republic of China,148
Q12233,Santander,43.466666666667,-3.8,4978,ES,SP,Spain,29
Q10103,Batam,1.0677777777778,104.01666666667,4951,ID,ID,Indonesia,252
Q500033,Shah Alam,3.0833333333333,101.53333333333,4950,MY,MY,Malaysia,833
Q3854,Bujumbura,-3.3825,29.361111111111,4940,BI,BY,Burundi,967
Q9824,Erode,11.340833333333,77.717222222222,4934,IN,IN,India,668
Q3825,Libreville,0.3901,9.4544,4929,GA,GB,Gabon,1000
Q321475,Kollam,8.8852777777778,76.586388888889,4921,IN,IN,India,668
Q83285,Durrës,41.324166666667,19.455833333333,4920,AL,AL,Albania,222
Q1453196,Muzaffarpur,26.12,85.38333333333334,4916,IN,IN,India,668
Q6816,Ulan-Ude,51.827222222222,107.60638888889,4913,RU,RS,Russia,159
Q9310,Dili,-8.5586111111111,125.57361111111,4903,TL,TT,East Timor,574
Q47045,Saint-Denis,-20.878888888889,55.448055555556,4902,FR,FR,France,142
Q631194,High Point,35.970555555556,-79.9975,4901,US,US,United States of America,30
Q41252,Bydgoszcz,53.116666666667,18,4900,PL,PL,Poland,36
Q7038,Girona,41.983333333333,2.8166666666667,4899,ES,SP,Spain,29
Q47264,Hassan,13.005,76.102777777778,4898,IN,IN,India,668
Q201117,Toyota,35.083333333333,137.15666666667,4897,JP,JA,Japan,17
Q47554,Toruń,53.016666666667,18.616666666667,4897,PL,PL,Poland,36
Q170573,Qom,34.646111111111,50.878888888889,4892,IR,IR,Iran,794
Q1028279,Cambridge,43.358333333333,-80.313888888889,4874,CA,CA,Canada,16
Q190828,Petah Tikva,32.083333333333,34.883333333333,4863,IL,IS,Israel,801
Q37776,Besançon,47.242222222222,6.0213888888889,4821,FR,FR,France,142
Q49178,Waterbury,41.558333333333,-73.036944444444,4816,US,US,United States of America,30
Q131350,Nishapur,36.206666666667,58.804166666667,4815,IR,IR,Iran,794
Q182640,Ta'if,21.266666666667,40.416666666667,4802,SA,SA,Saudi Arabia,851
Q12829733,Belém,-1.4558333333333,-48.503888888889,4802,BR,BR,Brazil,155
Q131416,Derbent,42.069166666667,48.295833333333,4783,,,,15180
Q131416,Derbent,42.069166666667,48.295833333333,4783,RU,RS,Russia,159
Q50054,Garden Grove,33.778889,-117.960278,4777,US,US,United States of America,30
Q3739,Bissau,11.859166666667,-15.595555555556,4762,GW,PU,Guinea-Bissau,1007
Q83247,Braga,41.533333333333,-8.4166666666667,4759,PT,PO,Portugal,45
Q20714,Suwon,37.285833333333,127.01,4750,KR,KS,South Korea,884
Q2706,Bremerhaven,53.55,8.5833333333333,4745,DE,GM,Germany,183
Q745168,Miramar,25.978888888889,-80.2825,4742,US,US,United States of America,30
Q26430,Tilburg,51.57,5.07,4742,NL,NL,Netherlands,55
Q3768,Yamoussoukro,6.816111111111111,-5.274166666666667,4741,CI,IV,Ivory Coast,1008
Q385,Gdynia,54.51889,18.53188,4732,PL,PL,Poland,36
Q186234,Kufa,32.03,44.4,4732,IQ,IZ,Iraq,796
Q3604,Djibouti,11.595,43.148055555556,4730,DJ,DJ,Djibouti,977
Q465022,Enugu,6.4402777777778,7.4941666666667,4729,NG,NI,Nigeria,1033
Q173731,Ghazni,33.549166666667,68.423333333333,4722,AF,AF,Afghanistan,889
Q671314,Elk Grove,38.438333333333,-121.38194444444,4708,US,US,United States of America,30
Q3159,Kursk,51.716666666667,36.183333333333,4704,RU,RS,Russia,159
Q81882,Santos,-23.960833333333,-46.333888888889,4702,BR,BR,Brazil,155
Q494720,Moreno Valley,33.943055555556,-117.22833333333,4700,US,US,United States of America,30
Q271619,Ipoh,4.6,101.07,4694,MY,MY,Malaysia,833
Q25410,Aalborg,57.05,9.9166666666667,4686,DK,DA,Denmark,35
Q107401,Sivas,39.75,37.016666666667,4675,TR,TU,Turkey,43
Q178405,Larissa,39.638493,22.413061,4673,GR,GR,Greece,41
Q200030,Latakia,35.523611111111,35.791666666667,4662,SY,SY,Syria,858
Q2910,Ludwigshafen,49.481111111111,8.4352777777778,4654,DE,GM,Germany,183
Q190184,Harar Jugol,9.3111111111111,42.127777777778,4643,ET,ET,Ethiopia,115
Q576938,Telford,52.679166666667,-2.4475,4628,GB,UK,United Kingdom,145
Q52607,Mar del Plata,-38,-57.55,4627,AR,AR,Argentina,414
Q3751,Praia,14.917719444444,-23.509155555556,4615,CV,CV,Cape Verde,1011
Q2103,Bochum,51.483333333333,7.2166666666667,4594,DE,GM,Germany,183
Q191204,Sulaymaniyah,35.55,45.433333333333,4589,IQ,IZ,Iraq,796
Q189633,Guilin,25.266666666667,110.28333333333,4584,CN,CH,People's Republic of China,148
Q35045,Potosí,-19.583333333333,-65.75,4583,BO,BL,Bolivia,750
Q592338,Marawi,8,124.3,4579,PH,RP,Philippines,928
Q929062,Gujrat,32.573611111111,74.078888888889,4570,PK,PK,Pakistan,843
Q15674,Kagoshima,31.58003,130.52806,4565,JP,JA,Japan,17
Q3876,Lilongwe,-13.983333333333,33.783333333333,4560,MW,MI,Malawi,1020
Q44013,Vaughan,43.833333333333,-79.5,4555,CA,CA,Canada,16
Q3792,Lomé,6.1319444444444,1.2227777777778,4551,TG,TO,Togo,945
Q189128,León,21.119722222222,-101.68055555556,4542,MX,MX,Mexico,96
Q132679,Willemstad,12.116666666667,-68.933333333333,4539,,,,25279
Q328615,Okinawa,26.334166666667,127.80555555556,4535,JP,JA,Japan,17
Q1010,Maribor,46.55,15.633333333333,4534,SI,SI,Slovenia,215
Q6509,Burgas,42.5,27.466666666667,4533,BG,BU,Bulgaria,219
Q131638,Shkodër,42.066666666667,19.5,4528,AL,AL,Albania,222
Q535534,Hohhot,40.81507,111.66293,4525,CN,CH,People's Republic of China,148
Q760714,Bhagalpur,25.25,87.016666666667,4509,IN,IN,India,668
Q709267,Bardhaman,23.25,87.85,4499,IN,IN,India,668
Q25413,Linköping,58.409418037448,15.625656134134,4498,SE,SW,Sweden,34
Q171639,Ashdod,31.797777777778,34.650277777778,4475,IL,IS,Israel,801
Q79880,Debrecen,47.53,21.639166666667,4473,HU,HU,Hungary,28
Q2938,Leverkusen,51.033333333333,6.9833333333333,4470,DE,GM,Germany,183
Q33147,Allen,33.099722222222,-96.663055555556,4467,US,US,United States of America,30
Q209016,Santa Marta,11.236111111111,-74.201666666667,4466,CO,CO,Colombia,739
Q44012,Trois-Rivières,46.35,-72.55,4461,CA,CA,Canada,16
Q695591,Chandannagar,22.866666666667,88.383333333333,4455,IN,IN,India,668
Q203299,Faiyum,29.3,30.833333333333,4439,EG,EG,Egypt,79
Q117040,Santiago de Cuba,20.028333333333,-75.820555555556,4430,CU,CU,Cuba,241
Q209034,Toluca,19.292222222222,-99.653888888889,4422,MX,MX,Mexico,96
Q372454,Escondido,33.124722,-117.080833,4405,US,US,United States of America,30
Q119219,Pimpri-Chinchwad,18.627777777778,73.813055555556,4401,IN,IN,India,668
Q182394,Yazd,31.897222222222,54.367777777778,4383,IR,IR,Iran,794
Q173310,Kirkuk,35.466666666667,44.4,4381,IQ,IZ,Iraq,796
Q6252,Monza,45.58361111111111,9.27361111111111,4376,IT,IT,Italy,38
Q83061,Van,38.501944444444,43.416666666667,4374,TR,TU,Turkey,43
Q1453180,Rohtak,28.9,76.566666666667,4363,IN,IN,India,668
Q182092,Tobruk,32.083333333333,23.95,4361,LY,LY,Libya,1016
Q133118,Şanlıurfa,37.158333333333,38.791666666667,4356,TR,TU,Turkey,43
Q370972,Pembroke Pines,26.0125,-80.313611111111,4345,US,US,United States of America,30
Q187284,Hurghada,27.257777777778,33.811666666667,4334,EG,EG,Egypt,79
Q128849,Nagano,36.648611111111,138.19277777778,4320,JP,JA,Japan,17
Q19566,Simferopol,44.948376,34.100039,4310,UA,UP,Ukraine,212
Q19566,Simferopol,44.948376,34.100039,4310,RU,RS,Russia,159
Q873377,Dumaguete,9.310278,123.308056,4306,PH,RP,Philippines,928
Q11506,Denpasar,-8.6666666666667,115.21666666667,4303,ID,ID,Indonesia,252
Q5779,Banda Aceh,5.55,95.3175,4297,ID,ID,Indonesia,252
Q42635,Wenzhou,27.999128,120.656075,4296,CN,CH,People's Republic of China,148
Q268915,Dhahran,26.266666666667,50.15,4294,SA,SA,Saudi Arabia,851
Q3415,Ancona,43.616666666667,13.516666666667,4266,IT,IT,Italy,38
Q2214,Pskov,57.816666666667,28.333333333333,4266,RU,RS,Russia,159
Q643215,Coquitlam,49.2839,-122.792,4255,CA,CA,Canada,16
Q1026420,Sandton,-26.107,28.051666666667,4227,ZA,SF,South Africa,258
Q170525,Agadir,30.416666666667,-9.5833333333333,4222,MA,MO,Morocco,1028
Q5285,Tarlac City,15.48017,120.59794,4222,PH,RP,Philippines,928
Q588477,Kharagpur,22.330239,87.323653,4186,IN,IN,India,668
Q2423,Yaroslavl,57.616666666667,39.85,4163,RU,RS,Russia,159
Q27860,Jayapura,-2.5333333333333,140.71666666667,4160,ID,ID,Indonesia,252
Q25281,Da Lat,11.941666666667,108.43833333333,4159,VN,VM,Vietnam,881
Q1647167,Pathankot,32.268888888889,75.649722222222,4159,IN,IN,India,668
Q134620,Jyväskylä,62.233333333333,25.733333333333,4137,FI,FI,Finland,33
Q53139,Chita,52.033333333333,113.5,4128,RU,RS,Russia,159
Q3612,Antofagasta,-23.6464,-70.398,4125,CL,CI,Chile,298
Q113464,Chatham-Kent,42.4,-82.183333333333,4124,CA,CA,Canada,16
Q81581,Szeged,46.25,20.166666666667,4122,HU,HU,Hungary,28
Q79815,Mulhouse,47.748611111111,7.3391666666667,4114,FR,FR,France,142
Q83189,Goiânia,-16.678888888889,-49.253888888889,4107,BR,BR,Brazil,155
Q93358,Oradea,47.072222222222,21.921111111111,4094,RO,RO,Romania,218
Q41753,Klagenfurt,46.616666666667,14.3,4090,AT,AU,Austria,40
Q179691,Niigata,37.916111111111,139.03638888889,4089,JP,JA,Japan,17
Q499887,Elgin,42.039444444444,-88.288611111111,4067,US,US,United States of America,30
Q530171,Ajman,25.399444444444,55.479722222222,4067,AE,AE,United Arab Emirates,878
Q386567,Ajax,43.858333333333,-79.036388888889,4067,CA,CA,Canada,16
Q15847,Manado,1.4930555555556,124.84126111111,4063,ID,ID,Indonesia,252
Q185134,Tlemcen,34.882777777778,-1.3166666666667,4060,DZ,AG,Algeria,262
Q61,"Washington, D.C.",38.895,-77.036666666667,458923,US,US,United States of America,30
Q60,New York City,40.67,-73.94,400098,US,US,United States of America,30
Q334,Singapore,1.3,103.8,276114,SG,SN,Singapore,334
Q65,Los Angeles,34.05223,-118.24368,249201,US,US,United States of America,30
Q8646,Hong Kong,22.278333333333,114.15861111111,174288,CN,CH,People's Republic of China,148
Q62,San Francisco,37.7775,-122.41638888888889,147457,US,US,United States of America,30
Q612,Dubai,25.269722222222,55.309444444444,143274,AE,AE,United Arab Emirates,878
Q1297,Chicago,41.881944444444,-87.627777777778,141313,US,US,United States of America,30
Q1156,Mumbai,18.966666666667,72.833333333333,135771,IN,IN,India,668
Q172,Toronto,43.670277777778,-79.386666666667,132826,CA,CA,Canada,16
Q23556,Atlanta,33.756944444444,-84.390277777778,128319,US,US,United States of America,30
Q1490,Tokyo,35.689722222222,139.69222222222,115526,JP,JA,Japan,17
Q220,Rome,41.893055555556,12.482777777778,102019,IT,IT,Italy,38
Q220,Rome,41.893055555556,12.482777777778,102019,IT,IT,Italy,38
Q1218,Jerusalem,31.783333333333,35.216666666667,95966,IL,IS,Israel,801
Q1218,Jerusalem,31.783333333333,35.216666666667,95966,IL,IS,Israel,801
Q406,Istanbul,41.01,28.960277777778,94645,TR,TU,Turkey,43
Q100,Boston,42.358333333333,-71.0625,89672,US,US,United States of America,30
Q24639,Vancouver,49.25,-123.1,88792,CA,CA,Canada,16
Q5083,Seattle,47.60621,-122.33207,88428,US,US,United States of America,30
Q40435,Buffalo,42.904722222222,-78.849444444444,86799,US,US,United States of America,30
Q649,Moscow,55.755833333333,37.617777777778,82992,RU,RS,Russia,159
Q34404,New Orleans,29.95465,-90.07507,82041,US,US,United States of America,30
Q12439,Detroit,42.331666666667,-83.0475,81963,US,US,United States of America,30
Q656,Saint Petersburg,59.95,30.316666666667,80982,RU,RS,Russia,159
Q1355,Bengaluru,12.969907,77.597963,80915,IN,IN,India,668
Q3130,Sydney,-33.866666666667,151.2,80324,AU,AS,Australia,408
Q1489,Mexico City,19.419444444444,-99.145555555556,78115,MX,MX,Mexico,96
Q16559,Austin,30.3,-97.733333333333,77086,US,US,United States of America,30
Q1754,Stockholm,59.329444444444,18.068611111111,76144,SE,SW,Sweden,34
Q16553,San Jose,37.304166666667,-121.87277777778,74351,US,US,United States of America,30
Q14773,Macau,22.166666666667,113.55,73983,CN,CH,People's Republic of China,148
Q23768,Las Vegas,36.169166666667,-115.14472222222,73736,US,US,United States of America,30
Q8652,Miami,25.783333333333,-80.216666666667,71475,US,US,United States of America,30
Q727,Amsterdam,52.383333333333,4.9,71267,NL,NL,Netherlands,55
Q11746,Wuhan,30.587222222222223,114.28805555555556,71191,CN,CH,People's Republic of China,148
Q8686,Shanghai,31.166666666667,121.46666666667,68788,CN,CH,People's Republic of China,148
Q16555,Houston,29.762777777778,-95.383055555556,68549,US,US,United States of America,30
Q3630,Jakarta,-6.21462,106.84513,67630,ID,ID,Indonesia,252
Q23197,Nashville,36.165,-86.783888888889,67498,US,US,United States of America,30
Q3141,Melbourne,-37.820555555556,144.96138888889,67157,AU,AS,Australia,408
Q956,Beijing,39.905,116.39138888889,67111,CN,CH,People's Republic of China,148
Q2807,Madrid,40.418888888889,-3.6919444444444,67012,ES,SP,Spain,29
Q987,New Delhi,28.7,77.2,66874,IN,IN,India,668
Q6610,Yakutsk,62.027222222222,129.73194444444,66194,RU,RS,Russia,159
Q5092,Baltimore,39.286388888889,-76.615,65041,US,US,United States of America,30
Q24826,Liverpool,53.416666666667,-3,63086,GB,UK,United Kingdom,145
Q23436,Edinburgh,55.95,-3.1988888888889,62910,GB,UK,United Kingdom,145
Q1352,Chennai,13.0825,80.275,62339,IN,IN,India,668
Q6106,Portland,45.516666666667,-122.66666666667,61671,US,US,United States of America,30
Q1761,Dublin,53.3425,-6.2658333333333,61659,IE,EI,Ireland,27
Q41819,Kansas City,39.05,-94.583333333333,60728,US,US,United States of America,30
Q18125,Manchester,53.466666666667,-2.2333333333333,60262,GB,UK,United Kingdom,145
Q16556,Phoenix,33.528333333333,-112.07638888889,59434,US,US,United States of America,30
Q1492,Barcelona,41.3825,2.1769444444444,57130,ES,SP,Spain,29
Q1342,Pittsburgh,40.45,-80,56087,US,US,United States of America,30
Q16565,Charlotte,35.226944444444,-80.843333333333,55861,US,US,United States of America,30
Q34932,Brisbane,-27.467777777778,153.02777777778,55606,AU,AS,Australia,408
Q4093,Glasgow,55.86,-4.25,55456,GB,UK,United Kingdom,145
Q38022,St. Louis,38.616666666667,-90.2,54742,US,US,United States of America,30
Q16554,Denver,39.739166666667,-104.98472222222,54351,US,US,United States of America,30
Q16557,Dallas,32.779166666667,-96.808888888889,53718,US,US,United States of America,30
Q18013,Sacramento,38.575277777778,-121.48611111111,53552,US,US,United States of America,30
Q1930,Ottawa,45.424722222222,-75.695,53462,CA,CA,Canada,16
Q16568,Jacksonville,30.316666666667,-81.65,52874,US,US,United States of America,30
Q1085,Prague,50.083333333333,14.416666666667,52603,CZ,EZ,Czech Republic,213
Q1748,Copenhagen,55.676111111111,12.568888888889,51919,DK,DA,Denmark,35
Q8673,Lagos,6.45,3.4,51723,NG,NI,Nigeria,1033
Q37100,Auckland,-36.85,174.78333333333,51547,NZ,NZ,New Zealand,664
Q641,Venice,45.439722222222,12.331944444444,51534,IT,IT,Italy,38
Q37320,Cleveland,41.482222222222,-81.669722222222,50993,US,US,United States of America,30
Q36312,Calgary,51.05,-114.06666666667,50817,CA,CA,Canada,16
Q34804,Albuquerque,35.116666666667,-106.61666666667,50783,US,US,United States of America,30
Q16552,San Diego,32.715,-117.1625,50225,US,US,United States of America,30
Q39450,Anchorage,61.218333333333,-149.89916666667,50179,US,US,United States of America,30
Q8678,Rio de Janeiro,-22.908333333333,-43.196388888889,49910,BR,BR,Brazil,155
Q5465,Cape Town,-33.925,18.425,49645,ZA,SF,South Africa,258
Q1524,Athens,37.979444444444,23.716111111111,49390,GR,GR,Greece,41
Q23337,Salt Lake City,40.75,-111.88333333333,48748,US,US,United States of America,30
Q490,Milan,45.466944444444,9.19,48653,IT,IT,Italy,38
Q1461,Manila,14.595833333333,120.97722222222,48279,PH,RP,Philippines,928
Q1726,Munich,48.137194444444,11.5755,47789,DE,GM,Germany,183
Q1486,Buenos Aires,-34.599722222222,-58.381944444444,46661,AR,AR,Argentina,414
Q36600,The Hague,52.084166666667,4.3175,46361,NL,NL,Netherlands,55
Q34647,Johannesburg,-26.204361111111,28.041638888889,45855,ZA,SF,South Africa,258
Q1861,Bangkok,13.75,100.51666666667,45759,TH,TH,Thailand,869
Q83813,Savannah,32.050833333333,-81.103888888889,45369,US,US,United States of America,30
Q36091,Minneapolis,44.981944444444444,-93.26916666666666,45204,US,US,United States of America,30
Q16567,Columbus,39.96222222222222,-83.00055555555555,45174,US,US,United States of America,30
Q585,Oslo,59.911111111111,10.752777777778,44965,NO,NO,Norway,20
Q49255,Tampa,27.970833333333,-82.464722222222,44961,US,US,United States of America,30
Q3114,Canberra,-35.293055555556,149.12694444444,44785,AU,AS,Australia,408
Q37836,Milwaukee,43.05,-87.95,44097,US,US,United States of America,30
Q85,Cairo,30.056111111111,31.239444444444,43954,EG,EG,Egypt,79
Q975,San Antonio,29.425,-98.49388888888889,42942,US,US,United States of America,30
Q174,São Paulo,-23.550394444444,-46.633947222222,42387,BR,BR,Brazil,155
Q1055,Hamburg,53.55,10,42021,DE,GM,Germany,183
Q23154,Bristol,51.45,-2.5833333333333,42004,GB,UK,United Kingdom,145
Q3183,Perth,-31.952222222222,115.85888888889,41992,AU,AS,Australia,408
Q16572,Guangzhou,23.128795,113.258976,41938,CN,CH,People's Republic of China,148
Q43433,Chandigarh,30.735277777778,76.791111111111,41885,IN,IN,India,668
Q18094,Honolulu,21.304694444444443,-157.85719444444445,41787,US,US,United States of America,30
Q87,Alexandria,31.2,29.916666666667,41125,EG,EG,Egypt,79
Q2634,Naples,40.833333333333,14.25,40816,IT,IT,Italy,38
Q11739,Lahore,31.549722222222,74.343611111111,40723,PK,PK,Pakistan,843
Q7903,Casablanca,33.599166666667,-7.62,40671,MA,MO,Morocco,1028
Q270,Warsaw,52.216666666667,21.033333333333,40555,PL,PL,Poland,36
Q1764,Reykjavík,64.1475,-21.935,40540,IS,IC,Iceland,189
Q6346,Indianapolis,39.768611111111,-86.158055555556,40137,US,US,United States of America,30
Q10686,Belfast,54.596388888889,-5.93,40090,GB,UK,United Kingdom,145
Q15174,Shenzhen,22.535,114.054,40027,CN,CH,People's Republic of China,148
Q2096,Edmonton,53.533333333333,-113.5,39695,CA,CA,Canada,16
Q3926,Pretoria,-25.746388888889,28.188055555556,39384,ZA,SF,South Africa,258
Q71,Geneva,46.2,6.15,38947,,,,39
Q43668,Louisville,38.25611111111111,-85.75138888888888,38387,US,US,United States of America,30
Q3820,Beirut,33.886944444444,35.513055555556,37990,LB,LE,Lebanon,822
Q1425428,Newcastle upon Tyne,54.977777777778,-1.6133333333333,37977,GB,UK,United Kingdom,145
Q42462,York,53.95,-1.0833333333333,37652,GB,UK,United Kingdom,145
Q33935,Tel Aviv,32.083333333333,34.8,37542,IL,IS,Israel,801
Q49233,Orlando,28.533611111111,-81.386666666667,37079,US,US,United States of America,30
Q47716,Charleston,32.776111111111,-79.9325,36635,US,US,United States of America,30
Q17042,Oakland,37.8,-122.25,36600,US,US,United States of America,30
Q365,Cologne,50.942222222222,6.9577777777778,36577,DE,GM,Germany,183
Q365,Cologne,50.942222222222,6.9577777777778,36577,DE,GM,Germany,183
Q3037,Kathmandu,27.716666666667,85.366666666667,36443,NP,NP,Nepal,837
Q79867,Birmingham,33.524755,-86.81274,36392,US,US,United States of America,30
Q2044,Florence,43.771388888889,11.254166666667,36387,IT,IT,Italy,38
Q16562,El Paso,31.759166666667,-106.48861111111,36241,US,US,United States of America,30
Q1794,Frankfurt am Main,50.113611111111,8.6797222222222,36231,DE,GM,Germany,183
Q18575,Tucson,32.221666666667,-110.92638888889,35958,US,US,United States of America,30
Q1530,Baghdad,33.35,44.416666666667,35949,IQ,IZ,Iraq,796
Q1530,Baghdad,33.35,44.416666666667,35949,,,,83891
Q1538,Pune,18.519574,73.855287,35649,IN,IN,India,668
Q79980,Varanasi,25.318888888889,83.012777777778,35602,IN,IN,India,668
Q1829,Kaliningrad,54.716666666667,20.5,35394,RU,RS,Russia,159
Q3200,Salzgitter,52.15027777777778,10.359305555555556,1512,DE,GM,Germany,183
Q3200,Salzgitter,52.15027777777778,10.359305555555556,1512,DE,GM,Germany,183
Q92277,Jilin City,43.8461,126.56157,1507,CN,CH,People's Republic of China,148
Q238452,Arish,31.133333333333,33.8,1504,EG,EG,Egypt,79
Q651286,Hat Yai,7.0166666666667,100.46666666667,1497,TH,TH,Thailand,869
Q191135,Vila Nova de Gaia,41.133333333333,-8.6166666666667,1491,PT,PO,Portugal,45
Q312209,Buea,4.1666666666667,9.2333333333333,1488,CM,CM,Cameroon,1009
Q153676,Kislovodsk,43.91,42.72,1487,RU,RS,Russia,159
Q194165,Irbid,32.555555555556,35.85,1486,JO,JO,Jordan,810
Q172512,Porto Velho,-8.7619444444444,-63.903888888889,1485,BR,BR,Brazil,155
Q171612,Rio Branco,-9.9780555555556,-67.811666666667,1484,BR,BR,Brazil,155
Q1020490,Mirpur Khas,25.526944444444446,69.0111111111111,1483,PK,PK,Pakistan,843
Q200951,Bolu,40.733333333333,31.6,1477,TR,TU,Turkey,43
Q1945121,Palakollu,16.5333,81.7333,1475,IN,IN,India,668
Q211590,Santa Clara,22.406666666667,-79.953055555556,1473,CU,CU,Cuba,241
Q33345,Yevpatoria,45.2,33.358333333333,1471,RU,RS,Russia,159
Q33345,Yevpatoria,45.2,33.358333333333,1471,UA,UP,Ukraine,212
Q52466,West Jordan,40.606388888889,-111.97611111111,1470,US,US,United States of America,30
Q1949422,Saharsa,25.88,86.6,1468,IN,IN,India,668
Q3085,Reutlingen,48.483333333333,9.2166666666667,1467,DE,GM,Germany,183
Q1159273,Danao,10.533333333333,123.93333333333,1467,PH,RP,Philippines,928
Q270041,Al Hudaydah,14.802222222222,42.951111111111,1466,YE,YM,Yemen,805
Q3490,Lipetsk,52.616666666667,39.6,1464,,,,15180
Q3490,Lipetsk,52.616666666667,39.6,1464,RU,RS,Russia,159
Q3490,Lipetsk,52.616666666667,39.6,1464,,,,34266
Q170457,Aydın,37.848055555556,27.845277777778,1462,TR,TU,Turkey,43
Q617618,Apapa,6.4488888888889,3.3588888888889,1461,NG,NI,Nigeria,1033
Q500366,Ogbomosho,8.1333333333333,4.25,1459,NG,NI,Nigeria,1033
Q104731,Gorzów Wielkopolski,52.733333333333,15.25,1458,PL,PL,Poland,36
Q192918,Sabratha,32.792222222222,12.484166666667,1455,LY,LY,Libya,1016
Q1017637,Nawabshah,26.244166666667,68.41,1455,PK,PK,Pakistan,843
Q34405,Jingdezhen,29.294167,117.203611,1451,CN,CH,People's Republic of China,148
Q3750,Gera,50.87818,12.08242,1450,DE,GM,Germany,183
Q459553,Chetumal,18.503611111111,-88.305277777778,1448,MX,MX,Mexico,96
Q192235,Ciudad del Este,-25.516666666667,-54.616666666667,1446,PY,PA,Paraguay,733
Q193428,Sakai,34.566666666667,135.48333333333,1446,JP,JA,Japan,17
Q1027120,Talisay,10.733333333333,122.96666666667,1443,PH,RP,Philippines,928
Q249995,Chiayi City,23.48,120.44972222222,1439,TW,TW,Taiwan,865
Q1020688,Cadiz,10.95,123.3,1436,PH,RP,Philippines,928
Q219671,Ndola,-12.968269444444,28.6337,1434,ZM,ZA,Zambia,953
Q1020192,Uitenhage,-33.75,25.4,1433,ZA,SF,South Africa,258
Q35925,Tabuk,17.45,121.45833333333,1431,PH,RP,Philippines,928
Q4035,Osasco,-23.532777777778,-46.791944444444,1429,BR,BR,Brazil,155
Q171357,Kecskemét,46.9074,19.6917,1424,HU,HU,Hungary,28
Q4709,Barquisimeto,10.067777777778,-69.346694444444,1422,VE,VE,Venezuela,717
Q171223,Nyíregyháza,47.95,21.716666666667,1421,HU,HU,Hungary,28
Q105060,Sosnowiec,50.3,19.166666666667,1415,PL,PL,Poland,36
Q74957,Anshan,41.10662,122.98945,1413,CN,CH,People's Republic of China,148
Q168929,Campo Grande,-20.468611111111,-54.622222222222,1412,BR,BR,Brazil,155
Q239107,Edfu,24.978055555556,32.878888888889,1410,EG,EG,Egypt,79
Q42084,Namyangju,37.636666666667,127.21416666667,1403,KR,KS,South Korea,884
Q466216,Ta'izz,13.578888888889,44.021944444444,1401,YE,YM,Yemen,805
Q2158697,Bukit Mertajam,5.3617251,100.4610443,1401,MY,MY,Malaysia,833
Q42125,Yeosu,34.760689,127.662163,1397,KR,KS,South Korea,884
Q2304045,Raiganj,25.616666666667,88.116666666667,1396,IN,IN,India,668
Q311321,Al-Hasakah,36.511666666667,40.742222222222,1395,SY,SY,Syria,858
Q2205,Iriga,13.416666666667,123.41666666667,1381,PH,RP,Philippines,928
Q42082,Gimhae,35.234166666667,128.88111111111,1377,KR,KS,South Korea,884
Q1009276,Trelew,-43.253333333333,-65.309444444444,1376,AR,AR,Argentina,414
Q242108,Otaru,43.1833,141,1375,JP,JA,Japan,17
Q478207,Kenitra,34.25,-6.5833333333333,1374,MA,MO,Morocco,1028
Q210628,Machida,35.548611111111,139.44666666667,1373,JP,JA,Japan,17
Q489898,Nukus,42.464722222222,59.602222222222,1371,UZ,UZ,Uzbekistan,265
Q239580,Kitwe,-12.820833333333,28.211944444444,1366,ZM,ZA,Zambia,953
Q349983,Heihe,50.245833,127.488611,1362,CN,CH,People's Republic of China,148
Q200077,Morioka,39.683333333333,141.15,1361,JP,JA,Japan,17
Q1525029,Gingoog,8.8166666666667,125.1,1361,PH,RP,Philippines,928
Q10396,Depok,-6.394,106.8225,1360,ID,ID,Indonesia,252
Q200589,Utsunomiya,36.55,139.88333333333,1359,JP,JA,Japan,17
Q196934,Ussuriysk,43.8,131.95,1356,RU,RS,Russia,159
Q174060,Elâzığ,38.666666666667,39.216666666667,1354,TR,TU,Turkey,43
Q14467,La Serena,-29.9027,-71.252,1354,CL,CI,Chile,298
Q315851,Carcar,10.116666666667,123.63333333333,1349,PH,RP,Philippines,928
Q1012465,Nyingchi,29.65973,94.35936,1346,CN,CH,People's Republic of China,148
Q110732,Wałbrzych,50.766666666667,16.283333333333,1342,PL,PL,Poland,36
Q897320,Brahmanbaria,23.96666667,91.1,1341,BD,BG,Bangladesh,902
Q222755,Ibagué,4.4377777777778,-75.200555555556,1338,CO,CO,Colombia,739
Q12887,Schaerbeek,50.8675,4.373611111111111,1336,BE,BE,Belgium,31
Q1637702,Alberton,-26.267222222222,28.121944444444,1334,ZA,SF,South Africa,258
Q217698,Weifang,36.716666666667,119.1,1332,CN,CH,People's Republic of China,148
Q181946,Argenteuil,48.947777777778,2.2475,1331,FR,FR,France,142
Q209779,Sagamihara,35.566666666667,139.36666666667,1327,JP,JA,Japan,17
Q156658,Nakhodka,42.816666666667,132.88333333333,1326,RU,RS,Russia,159
Q1062370,Myitkyina,25.386666666667,97.393611111111,1319,MM,BM,Myanmar,836
Q644663,Portmore,17.966666666667,-76.866666666667,1317,JM,JM,Jamaica,766
Q13379,Kurgan,55.440833333333,65.341111111111,1314,RU,RS,Russia,159
Q13379,Kurgan,55.440833333333,65.341111111111,1314,,,,34266
Q272093,Sanandaj,35.309722222222,46.998888888889,1313,IR,IR,Iran,794
Q271771,Tanta,30.783333333333,31,1313,EG,EG,Egypt,79
Q194328,Uberlândia,-18.918888888889,-48.276944444444,1312,BR,BR,Brazil,155
Q208389,Sabha,27.033333333333,14.433333333333,1311,LY,LY,Libya,1016
Q44253,Santiago del Estero,-27.784444444444,-64.266944444444,1304,AR,AR,Argentina,414
Q316197,Naga,10.216666666667,123.75,1304,PH,RP,Philippines,928
Q824594,Nador,35.1667,-2.93333,1298,MA,MO,Morocco,1028
Q243853,Nishinomiya,34.733333333333,135.33333333333,1295,JP,JA,Japan,17
Q1020696,Silay,10.8,122.96666666667,1293,PH,RP,Philippines,928
Q270814,Ishinomaki,38.428055555556,141.30611111111,1293,JP,JA,Japan,17
Q748028,Puerto Madryn,-42.7729674,-65.0366104,1293,AR,AR,Argentina,414
Q183405,Safi,32.283333333333,-9.2333333333333,1292,MA,MO,Morocco,1028
Q1026445,Kabankalan,9.9833333333333,122.81666666667,1291,PH,RP,Philippines,928
Q491879,Termez,37.224166666667,67.278333333333,1291,UZ,UZ,Uzbekistan,265
Q58560,Qinhuangdao,39.93978,119.58812,1289,CN,CH,People's Republic of China,148
Q995380,San Luis Río Colorado,32.476666666667,-114.7625,1286,MX,MX,Mexico,96
Q486545,Taraz,42.883333333333,71.366666666667,1284,KZ,KZ,Kazakhstan,232
Q23185,Mytishchi,55.916666666667,37.733333333333,1278,RU,RS,Russia,159
Q58675,Chengde,40.973888888889,117.93222222222,1278,CN,CH,People's Republic of China,148
Q42146,Cheonan,36.806388888889,127.15222222222,1278,KR,KS,South Korea,884
Q10104,Tanjung Pinang,0.91877777777778,104.45541666667,1277,ID,ID,Indonesia,252
Q201932,Kōfu,35.666666666667,138.56666666667,1275,JP,JA,Japan,17
Q103892,Zabrze,50.3,18.783333333333,1272,PL,PL,Poland,36
Q600693,Thiès,14.783333333333,-16.916666666667,1272,SN,SG,Senegal,1041
Q207311,Suzuka,34.882222222222,136.58416666667,1272,JP,JA,Japan,17
Q178067,Toamasina,-18.1492,49.40234,1264,MG,MA,Madagascar,1019
Q8156,Bandar Lampung,-5.4294444444444,105.2625,1256,ID,ID,Indonesia,252
Q738748,Sittwe,20.144444444444,92.896944444444,1256,MM,BM,Myanmar,836
Q11977,Tychy,50.166666666667,19,1256,PL,PL,Poland,36
Q104302,Chorzów,50.3,18.95,1256,PL,PL,Poland,36
Q206879,Nevşehir,38.625,34.712222222222,1255,TR,TU,Turkey,43
Q276534,Wau,7.7,27.983333333333,1253,SS,OD,South Sudan,958
Q1553052,Nusaybin,37.083333333333,41.216666666667,1252,TR,TU,Turkey,43
Q201095,Giresun,40.9,38.416666666667,1252,TR,TU,Turkey,43
Q386661,Fujisawa,35.338833333333,139.49111111111,1251,JP,JA,Japan,17
Q14169,Singkawang,0.9,108.98333333333,1246,ID,ID,Indonesia,252
Q206903,Kırklareli,41.734722222222,27.225277777778,1245,TR,TU,Turkey,43
Q273798,Narita,35.783333333333,140.31666666667,1240,JP,JA,Japan,17
Q242874,Koganei City,35.699444444444,139.50305555556,1237,JP,JA,Japan,17
Q51059,Osorno,-40.566666666667,-73.15,1236,CL,CI,Chile,298
Q737822,Bergama,39.122777777778,27.178333333333,1235,TR,TU,Turkey,43
Q68814,Zhangzhou,24.50932,117.66117,1234,CN,CH,People's Republic of China,148
Q178855,Botoșani,47.748611111111,26.669444444444,1230,RO,RO,Romania,218
Q171031,Isparta,37.766666666667,30.55,1230,TR,TU,Turkey,43
Q825166,Izumo,35.368055555556,132.755,1226,JP,JA,Japan,17
Q209801,Himeji,34.816666666667,134.68333333333,1226,JP,JA,Japan,17
Q693093,Machakos,-1.5166666666667,37.266666666667,1223,KE,KE,Kenya,114
Q175470,Novy Urengoy,66.084722222222,76.678888888889,1221,RU,RS,Russia,159
Q132732,Bratsk,56.166666666667,101.61666666667,1219,RU,RS,Russia,159
Q20921,Daejeon,36.351,127.385,6246,KR,KS,South Korea,884
Q160506,Saint-Denis,48.935555555556,2.3538888888889,6242,FR,FR,France,142
Q42780,Ningbo,29.875,121.54916666667,6234,CN,CH,People's Republic of China,148
Q1025475,Jaunpur,25.733333333333,82.683333333333,6232,IN,IN,India,668
Q25409,Košice,48.716666666667,21.25,6215,SK,LO,Slovakia,214
Q34183,Barrie,44.39,-79.686,6205,CA,CA,Canada,16
Q75933,San Pedro,14.358333333333,121.05833333333,6194,PH,RP,Philippines,928
Q23025,Red Deer,52.268055555556,-113.81111111111,6179,CA,CA,Canada,16
Q478302,Toowoomba,-27.55,151.95,6158,AU,AS,Australia,408
Q6221,Brescia,45.538888888889,10.220280555556,6146,IT,IT,Italy,38
Q63145,Imus,14.429722222222,120.93666666667,6127,PH,RP,Philippines,928
Q637555,Montego Bay,18.466666666667,-77.916666666667,6089,JM,JM,Jamaica,766
Q1723,Batangas City,13.75,121.05,6087,PH,RP,Philippines,928
Q761,Białystok,53.116666666667,23.166666666667,6075,PL,PL,Poland,36
Q2207,Naga,13.616666666667,123.16666666667,6073,PH,RP,Philippines,928
Q499196,Costa Mesa,33.67,-117.91,6069,US,US,United States of America,30
Q231765,Geelong,-38.15,144.35,6039,AU,AS,Australia,408
Q49274,Garland,32.906944,-96.635,6025,US,US,United States of America,30
Q3033,Göttingen,51.533888888889,9.9355555555556,6012,DE,GM,Germany,183
Q208097,Imphal,24.82,93.95,6003,IN,IN,India,668
Q193250,Bulawayo,-20.166666666667,28.566666666667,5996,ZW,ZI,Zimbabwe,954
Q7859,Yuzhno-Sakhalinsk,46.95,142.73333333333,5986,RU,RS,Russia,159
Q126805,St. Catharines,43.183333333333,-79.233333333333,5978,CA,CA,Canada,16
Q200718,Bikaner,28.018055555556,73.316944444444,5959,IN,IN,India,668
Q5972,Medan,3.6666666666667,98.666666666667,5954,ID,ID,Indonesia,252
Q1772825,Hisar,29.148888888889,75.736666666667,5947,IN,IN,India,668
Q1083,Salerno,40.680555555556,14.759722222222,5932,IT,IT,Italy,38
Q776965,Klaipėda,55.7075,21.142777777778,5903,LT,LH,Lithuania,37
Q1482,Cavite City,14.483333333333,120.9,5894,PH,RP,Philippines,928
Q1949069,Mohali,30.719444444444445,76.71805555555555,5891,IN,IN,India,668
Q2193,San Jose del Monte,14.813888888889,121.04527777778,5891,PH,RP,Philippines,928
Q234600,Al Ain,24.2075,55.744722222222,5886,AE,AE,United Arab Emirates,878
Q137271,Kota Kinabalu,5.975,116.0725,5881,MY,MY,Malaysia,833
Q3120966,Guntur,16.3,80.45,5868,IN,IN,India,668
Q397905,Columbia,39.20361111,-76.85694444,5862,US,US,United States of America,30
Q182059,Kumasi,6.6833333333333,-1.6166666666667,5851,GH,GH,Ghana,117
Q244232,Tabuk,28.397222222222,36.578888888889,5840,SA,SA,Saudi Arabia,851
Q38380,Angers,47.472777777778,-0.55555555555556,5839,FR,FR,France,142
Q1729,Erfurt,50.978055555556,11.029166666667,5832,DE,GM,Germany,183
Q330643,Muradabad,28.843236111111,78.728741666667,5809,IN,IN,India,668
Q43453,Plzeň,49.741388888889,13.3825,5802,CZ,EZ,Czech Republic,213
Q42716,Saint-Étienne,45.433888888889,4.3897222222222,5802,FR,FR,France,142
Q211867,Oshawa,43.9,-78.85,5796,CA,CA,Canada,16
Q83387,Diyarbakır,37.910833333333,40.236666666667,5794,TR,TU,Turkey,43
Q203349,Poole,50.716666666667,-1.9833333333333,5789,GB,UK,United Kingdom,145
Q44160,Toulon,43.125,5.9305555555556,5786,FR,FR,France,142
Q1696,Legazpi,13.133333333333,123.73333333333,5769,PH,RP,Philippines,928
Q83324,Sibiu,45.8,24.15,5766,RO,RO,Romania,218
Q133123,Patras,38.25,21.733333333333,5752,GR,GR,Greece,41
Q242144,Bhilai,21.366666666667,81.716666666667,5738,IN,IN,India,668
Q1686,Butuan,8.9534,125.5288,5738,PH,RP,Philippines,928
Q726993,Cotabato City,7.2166666666667,124.25,5731,PH,RP,Philippines,928
Q187346,Constantine,36.365,6.6147222222222,5729,DZ,AG,Algeria,262
Q1006240,Palakkad,10.779166666667,76.654722222222,5722,IN,IN,India,668
Q2916,Osnabrück,52.278888888889,8.0430555555556,5719,DE,GM,Germany,183
Q3426,Voronezh,51.671666666667,39.210555555556,5718,RU,RS,Russia,159
Q60956,Ashkelon,31.665833333333,34.566388888889,5711,IL,IS,Israel,801
Q187593,Lubumbashi,-11.669722222222,27.458055555556,5686,CD,CG,Democratic Republic of the Congo,974
Q738353,Heroica Matamoros,25.879722222222,-97.504166666667,5681,MX,MX,Mexico,96
Q37333,Lublin,51.233333333333,22.566666666667,5662,PL,PL,Poland,36
Q24603,Independence,39.083333333333,-94.416666666667,5647,US,US,United States of America,30
Q44237,Mendoza,-32.883333333333,-68.833333333333,5629,AR,AR,Argentina,414
Q2100,Duisburg,51.432222222222,6.7611111111111,5624,DE,GM,Germany,183
Q5815,Tyumen,57.15,65.533333333333,5623,RU,RS,Russia,159
Q55740,San Fernando,15.033333333333,120.68333333333,5612,PH,RP,Philippines,928
Q34218,Burlington,43.325,-79.8,5600,CA,CA,Canada,16
Q5088,Durgapur,23.55,87.32,5596,IN,IN,India,668
Q44059,La Plata,-34.933333333333,-57.95,5592,AR,AR,Argentina,414
Q189138,Hermosillo,29.1025,-110.97722222222,5590,MX,MX,Mexico,96
Q28587,Hamadan,34.8,48.516666666667,5587,IR,IR,Iran,794
Q134287,Tarsus,36.916666666667,34.9,5557,TR,TU,Turkey,43
Q192807,Ramat Gan,32.083333333333,34.816666666667,5557,IL,IS,Israel,801
Q95449,Magnitogorsk,53.383333333333,59.033333333333,5556,RU,RS,Russia,159
Q2770,Tula,54.2,37.616666666667,5537,RU,RS,Russia,159
Q2711899,Greater Noida,28.496152777778,77.536011111111,5530,IN,IN,India,668
Q323432,Fairfield,38.257777777778,-122.05416666667,5524,US,US,United States of America,30
Q3150,Jena,50.927222222222,11.586388888889,5522,DE,GM,Germany,183
Q3150,Jena,50.927222222222,11.586388888889,5522,DE,GM,Germany,183
Q170454,Agartala,23.833333333333,91.266666666667,5507,IN,IN,India,668
Q494728,West Covina,34.056666666667,-117.91861111111,5503,US,US,United States of America,30
Q2222874,Zanzibar City,-6.1666666666667,39.2,5500,TZ,TZ,Tanzania,924
Q41278,Ulsan,35.55,129.31666666667,5489,KR,KS,South Korea,884
Q2814,Halle (Saale),51.48277777777778,11.969722222222222,5483,DE,GM,Germany,183
Q2814,Halle (Saale),51.48277777777778,11.969722222222222,5483,DE,GM,Germany,183
Q491340,Roseville,38.7525,-121.28944444444,5479,US,US,United States of America,30
Q4301,Arusha,-3.3666666666667,36.683333333333,5460,TZ,TZ,Tanzania,924
Q5332,Saratov,51.533333333333,46,5448,RU,RS,Russia,159
Q14328,Santa Cruz de Tenerife,28.466666666667,-16.25,5446,ES,SP,Spain,29
Q62723,General Trias,14.383333333333,120.88333333333,5442,PH,RP,Philippines,928
Q45656,Limoges,45.834444444444,1.2616666666667,5442,FR,FR,France,142
Q139473,Sherbrooke,45.4,-71.9,5439,CA,CA,Canada,16
Q49270,Chula Vista,32.627777777778,-117.04805555556,5428,US,US,United States of America,30
Q318156,Bahawalpur,29.395555555555557,71.67222222222222,5427,PK,PK,Pakistan,843
Q43463,Fortaleza,-3.7275,-38.5275,5423,BR,BR,Brazil,155
Q172455,Boulogne-Billancourt,48.835277777778,2.2413888888889,5370,FR,FR,France,142
Q242895,Saharanpur,29.964,77.546,5368,IN,IN,India,668
Q3818,Malabo,3.752063888888889,8.7737,5367,GQ,EK,Equatorial Guinea,983
Q63129,Bacoor,14.462422222222223,120.96445277777778,5366,PH,RP,Philippines,928
Q1154,Jamnagar,22.47,70.07,5355,IN,IN,India,668
Q134509,Port Said,31.25,32.283333333333,5342,EG,EG,Egypt,79
Q208471,Kaifeng,34.79357,114.34034,5342,CN,CH,People's Republic of China,148
Q202139,Asansol,23.683333333333,86.966666666667,5319,IN,IN,India,668
Q2907,Sucre,-19.04306,-65.25917,5311,BO,BL,Bolivia,750
Q245023,Taichung,24.15,120.66666666667,5305,TW,TW,Taiwan,865
Q76001,San Pablo,14.066666666667,121.31666666667,5285,PH,RP,Philippines,928
Q5627,Ulyanovsk,54.316666666667,48.366666666667,5283,RU,RS,Russia,159
Q220445,Kuching,1.539722,110.354167,5266,MY,MY,Malaysia,833
Q55595,Cabanatuan,15.483333333333,120.96666666667,5251,PH,RP,Philippines,928
Q5426,Izhevsk,56.85,53.216666666667,5250,RU,RS,Russia,159
Q127063,Kars,40.606944444444,43.093055555556,5245,TR,TU,Turkey,43
Q130469,Mazar-i-Sharif,36.7,67.116666666667,5236,AF,AF,Afghanistan,889
Q40844,Breda,51.583333333333,4.7833333333333,5230,NL,NL,Netherlands,55
Q2942,Solingen,51.166666666666664,7.083333333333333,5226,DE,GM,Germany,183
Q13362,Ferrara,44.835297,11.619865,5225,IT,IT,Italy,38
Q11711,Siem Reap,13.362222222222,103.85972222222,5193,KH,CB,Cambodia,424
Q190948,Abha,18.216666666667,42.5,5184,SA,SA,Saudi Arabia,851
Q52998,Richmond Hill,43.8849,-79.4304,5164,CA,CA,Canada,16
Q132572,Tiraspol,46.85,29.63333333,5158,MD,MD,Moldova,217
Q132572,Tiraspol,46.85,29.63333333,5158,,,,907112
Q2722762,Alwar,27.566666666667,76.616666666667,5157,IN,IN,India,668
Q370925,Daly City,37.686388888889,-122.46833333333,5150,US,US,United States of America,30
Q183584,Lanzhou,36.06171,103.83177,5143,CN,CH,People's Republic of China,148
Q2200,Tuguegarao,17.616666666667,121.71666666667,5114,PH,RP,Philippines,928
Q25331,Odense,55.4,10.383333333333,5100,DK,DA,Denmark,35
Q581562,Satara,17.683333333333,73.983333333333,5094,IN,IN,India,668
Q131301,Homs,34.733333333333,36.716666666667,5087,SY,SY,Syria,858
Q20929,Sejong City,36.487002,127.282234,5083,KR,KS,South Korea,884
Q6761,Livorno,43.55,10.316666666667,5077,IT,IT,Italy,38
Q140147,Brest,52.084722222222,23.656944444444,5073,BY,BO,Belarus,184
Q140147,Brest,52.084722222222,23.656944444444,5073,BY,BO,Belarus,184
Q75961,Biñan,14.333333333333,121.08333333333,5066,PH,RP,Philippines,928
Q2766547,'s-Hertogenbosch,51.7,5.3166666666667,5060,NL,NL,Netherlands,55
Q198370,Zibo,36.783056,118.049722,5056,CN,CH,People's Republic of China,148
Q183303,Jalalabad,34.430277777778,70.452777777778,5050,AF,AF,Afghanistan,889
Q45412,Coimbra,40.211141,-8.429072,5045,PT,PO,Portugal,45
Q170247,Jinan,36.666666666667,116.98333333333,5032,CN,CH,People's Republic of China,148
Q17943,Arlington,32.705033,-97.122839,15929,US,US,United States of America,30
Q34739,Dayton,39.766666666667,-84.2,15924,US,US,United States of America,30
Q28260,Lincoln,40.810555555556,-96.680277777778,15917,US,US,United States of America,30
Q225641,Mombasa,-4.05,39.666666666667,15836,KE,KE,Kenya,114
Q891,Nizhny Novgorod,56.326944444444,44.0075,15712,RU,RS,Russia,159
Q28237,Lansing,42.7335,-84.5467,15676,US,US,United States of America,30
Q48403,Amritsar,31.616666666667,74.85,15646,IN,IN,India,668
Q487999,Gainesville,29.665277777778,-82.336111111111,15597,US,US,United States of America,30
Q1508,Makati,14.55,121.03333333333,15549,PH,RP,Philippines,928
Q47034,Espoo,60.21,24.66,15538,FI,FI,Finland,33
Q486877,South Bend,41.676388888889,-86.250277777778,15526,US,US,United States of America,30
Q10282,Pamplona,42.816666666667,-1.65,15382,ES,SP,Spain,29
Q49179,Worcester,42.271388888889,-71.798888888889,15317,US,US,United States of America,30
Q2966,Heidelberg,49.412222222222,8.71,15307,DE,GM,Germany,183
Q12994,Bruges,51.208888888888886,3.2241666666666666,15218,BE,BE,Belgium,31
Q9347,Malé,4.175,73.508333333333,15180,MV,MV,Maldives,826
Q2765,Gelsenkirchen,51.516666666667,7.1,15146,DE,GM,Germany,183
Q10305,Zaragoza,41.65,-0.88333333333333,15099,ES,SP,Spain,29
Q80517,Shreveport,32.5082078,-93.7629569,15099,US,US,United States of America,30
Q159260,Santa Clara,37.35,-121.96666666667,15085,US,US,United States of America,30
Q49229,Durham,35.9875,-78.907222,15085,US,US,United States of America,30
Q13364,Ravenna,44.417777777778,12.199444444444,15077,IT,IT,Italy,38
Q49227,Winston-Salem,36.1025,-80.260555555556,15069,US,US,United States of America,30
Q170478,Bournemouth,50.72,-1.88,15055,GB,UK,United Kingdom,145
Q66568,Kanpur,26.4725,80.331111111111,14999,IN,IN,India,668
Q200663,Faridabad,28.416666666667,77.3,14941,IN,IN,India,668
Q24879,Bremen,53.076944444444,8.8088888888889,14845,DE,GM,Germany,183
Q376749,Chittagong,22.335,91.8325,14837,BD,BG,Bangladesh,902
Q3579,Tripoli,32.87519,13.18746,14814,LY,LY,Libya,1016
Q807,Lausanne,46.533333333333,6.6333333333333,14810,,,,39
Q36433,Porto,41.149472222222,-8.6107777777778,14809,PT,PO,Portugal,45
Q1707,Kiel,54.323333333333,10.139444444444,14788,DE,GM,Germany,183
Q1707,Kiel,54.323333333333,10.139444444444,14788,DE,GM,Germany,183
Q486168,San Bernardino,34.129444444444,-117.29305555556,14775,US,US,United States of America,30
Q8969,Cancún,21.160555555556,-86.8475,14775,MX,MX,Mexico,96
Q49158,Springfield,42.112411,-72.547455,14766,US,US,United States of America,30
Q28515,Springfield,39.79944444444445,-89.655,14749,US,US,United States of America,30
Q11909,Vadodara,22.3,73.2,14701,IN,IN,India,668
Q200019,Jodhpur,26.466666666667,73.033333333333,14596,IN,IN,India,668
Q5818,Córdoba,37.883333333333,-4.7666666666667,14591,ES,SP,Spain,29
Q3306,Panama City,9,-79.5,14570,PA,PM,Panama,804
Q5582862,Cuzco,-13.518333,-71.978056,14527,PE,PE,Peru,419
Q48320,Kōbe,34.6913,135.183,14494,JP,JA,Japan,17
Q171771,Bhubaneswar,20.264444444444,85.828055555556,14460,IN,IN,India,668
Q9361,Bishkek,42.866666666667,74.566666666667,14436,KG,KG,Kyrgyzstan,813
Q134672,Exeter,50.721538888889,-3.5331083333333,14413,GB,UK,United Kingdom,145
Q49238,Greensboro,36.08,-79.819444444444,14348,US,US,United States of America,30
Q182625,Windsor,42.31729,-83.03526,14272,CA,CA,Canada,16
Q171866,Middlesbrough,54.573888888889,-1.2333333333333,14259,GB,UK,United Kingdom,145
Q42053,Isfahan,32.644722222222,51.6675,14246,IR,IR,Iran,794
Q486472,Kansas City,39.106666666667,-94.676388888889,14241,US,US,United States of America,30
Q25270,Pristina,42.666666666667,21.166666666667,14215,XK,KV,Kosovo,1246
Q49174,Bridgeport,41.183333333333,-73.2,14173,US,US,United States of America,30
Q10313,Donostia-San Sebastián,43.32,-1.98,14173,ES,SP,Spain,29
Q128295,Abilene,32.446388888889,-99.745555555556,14148,US,US,United States of America,30
Q39420,Sochi,43.585277777778,39.720277777778,14131,RU,RS,Russia,159
Q43475,Derby,52.916666666667,-1.4666666666667,14119,GB,UK,United Kingdom,145
Q20927,Daegu,35.866666666667,128.6,13965,KR,KS,South Korea,884
Q1040,Karlsruhe,49.016666666667,8.4,13941,DE,GM,Germany,183
Q1040,Karlsruhe,49.016666666667,8.4,13941,,,,186320
Q1842,Luxembourg,49.610555555556,6.1327777777778,13870,LU,LU,Luxembourg,32
Q3572,Tunis,36.800833333333,10.18,13830,TN,TS,Tunisia,948
Q16959,Ürümqi,43.825,87.6,13808,CN,CH,People's Republic of China,148
Q188304,Sunderland,54.9,-1.3802777777778,13805,GB,UK,United Kingdom,145
Q25804,Trondheim,63.44,10.4,13802,NO,NO,Norway,20
Q255455,Jammu,32.733333333333,74.85,13801,IN,IN,India,668
Q21197,Chișinău,47.005555555556,28.8575,13796,MD,MD,Moldova,217
Q2235,Veliky Novgorod,58.52099,31.27579,13712,RU,RS,Russia,159
Q491132,Santa Clarita,34.416389,-118.506389,13663,US,US,United States of America,30
Q211907,Slough,51.509722222222,-0.59305555555556,13651,GB,UK,United Kingdom,145
Q51689,Plano,33.05,-96.75,13633,US,US,United States of America,30
Q228405,Madurai,9.9196611111111,78.119394444444,13615,IN,IN,India,668
Q234053,Vancouver,45.633611111111,-122.60277777778,13598,US,US,United States of America,30
Q130514,Luxor,25.696944444444,32.642222222222,13585,EG,EG,Egypt,79
Q3856,Nicosia,35.1725,33.365,13528,,,,23681
Q3856,Nicosia,35.1725,33.365,13528,CY,CY,Cyprus,229
Q13670,Syracuse,37.069166666667,15.2875,13490,IT,IT,Italy,38
Q135615,Springfield,37.195,-93.286111111111,13381,US,US,United States of America,30
Q30974,Rouen,49.443055555556,1.1025,13368,FR,FR,France,142
Q489197,Torrance,33.8358492,-118.3406288,13361,US,US,United States of America,30
Q239,Brussels,50.846666666666664,4.351666666666667,13356,BE,BE,Belgium,31
Q1720,Mainz,50,8.2666666666667,13331,DE,GM,Germany,183
Q199605,Guwahati,26.166666666667,91.766666666667,13258,IN,IN,India,668
Q93230,Rawalpindi,33.6007,73.0679,13151,PK,PK,Pakistan,843
Q1296,Ghent,51.05361111111111,3.725277777777778,13145,BE,BE,Belgium,31
Q12191,Nantes,47.217222222222,-1.5538888888889,13107,FR,FR,France,142
Q7951,Petropavlovsk-Kamchatsky,53.016666666667,158.65,13075,RU,RS,Russia,159
Q721455,Miami Gardens,25.942122222222,-80.269919444444,13005,US,US,United States of America,30
Q244146,Clearwater,27.973611111111,-82.764166666667,12988,US,US,United States of America,30
Q234061,Erie,42.129561111111,-80.085213888889,12972,US,US,United States of America,30
Q49268,Fort Wayne,41.08045,-85.13915,12967,US,US,United States of America,30
Q43387,Edirne,41.678055555556,26.559444444444,12956,TR,TU,Turkey,43
Q204561,Modesto,37.661388888889,-120.99444444444,12929,US,US,United States of America,30
Q1735,Innsbruck,47.268333333333,11.393333333333,12920,,,,28513
Q1735,Innsbruck,47.268333333333,11.393333333333,12920,AT,AU,Austria,40
